Course;Date;Ville;Département;Distance(s) km;Prix;Médaille;Niveau;Lien;latitude;longitude;geocoding_source;geocoding_query;geocoding_label;geocoding_score;
Foulées d'Île-de-France des îles;05-juil-26;Paris;75;10, 5, 3;dès 8€;Oui;Tous niveaux;https://protiming.fr/Runnings/detail/8155-Les-Foulees-d-Ile-de-France-France-des-Iles;48.859;2.347;api-adresse.data.gouv.fr;Paris 75 France;Paris;0.3980829411764706;
50 et 100 km self-transcendance;05-juil-26;Paris;75;100, 50;Non précisé;Non précisé;Expert-Ultra;https://fr.srichinmoyraces.org/;48.859;2.347;api-adresse.data.gouv.fr;Paris 75 France;Paris;0.3980829411764706;
Run Set & Match;05-juil-26;Paris;75;10, 3, 1.75, 1.1, 0.45;dès 9€;Oui;Tous niveaux;https://www.run-set-match.com/;48.859;2.347;api-adresse.data.gouv.fr;Paris 75 France;Paris;0.3980829411764706;
Les foulées nature de villenoy;05-juil-26;Villenoy;77;15, 9, 1.5, 0.8;dès 8€;Non précisé;Tous niveaux;https://www.le-sportif.com/calendrier/221968/les-foulees-nature-de-villenoy-2026/course-a-pied-sur-route/;48.946601;2.860042;api-adresse.data.gouv.fr;Villenoy 77 France;Villenoy;0.4429281818181818;
Trail du Moulin Neuf;05-juil-26;Soisy-sur-Ecole;91;19.7, 11.4, 0.9;dès 5€;Oui;Intermédiaire;https://le-trail-du-moulin-neuf.adeorun.com/;48.478395;2.492672;api-adresse.data.gouv.fr;Soisy-sur-Ecole 91 France;Soisy-sur-École;0.5422978787878787;
Les foulées briardes;juillet 2026 (TBC);Brie-Comte-Robert;77;10, 5;dès 6€;Non précisé;Tous niveaux;https://fr.milesrepublic.com/event/les-foulees-briardes-1648;48.68978;2.616586;api-adresse.data.gouv.fr;Brie-Comte-Robert 77 France;Brie-Comte-Robert;0.5758401567398118;
Les foulées dammartinoises;14-juil-26;Dammartin-sur-Tigeaux;77;10, 5, 1.5, 0.8, 0.4;dès 7€;Non précisé;Tous niveaux;https://www.dammartinsurtigeaux.net/les-foulees-dammartinoises-2026/;48.811793;2.919573;api-adresse.data.gouv.fr;Dammartin-sur-Tigeaux 77 France;Dammartin-sur-Tigeaux;0.5977861157024793;
La foulée bourronnaise;août 2026 (TBC);Bourron-Marlotte;77;10, 4.264, 1.6, 1;dès 1€;Non précisé;Tous niveaux;https://www.facebook.com/people/Foul%C3%A9e-Bourronnaise/100066691110963/?sk=about;48.342972;2.705747;api-adresse.data.gouv.fr;Bourron-Marlotte 77 France;Bourron-Marlotte;0.5570222077922078;
La foulée trielloise;30-août-26;Triel-sur-Seine;78;13, 7;dès 10€;Non précisé;Tous niveaux;https://www.triel-sur-seine.fr/agenda/1939/1526-foulee-trielloise.htm;48.984602;2.005576;api-adresse.data.gouv.fr;Triel-sur-Seine 78 France;Triel-sur-Seine;0.552930606060606;
Les 4 heures de Montévrain;août 2026 (TBC);Montévrain;77;2.16, 2;dès 8€;Non précisé;Familial;https://les4heuresdemontevrain.wifeosite.com/;48.867105;2.74974;api-adresse.data.gouv.fr;Montévrain 77 France;Montévrain;0.48520008264462805;
La tremblaysienne;août 2026 (TBC);Le Tremblay-sur-Mauldre;78;12, 10, 7, 6.5, 3;Non précisé;Non précisé;Tous niveaux;https://www.facebook.com/ARCB78490/;48.775664;1.876937;api-adresse.data.gouv.fr;Le Tremblay-sur-Mauldre 78 France;Le Tremblay-sur-Mauldre;0.6105055844155844;
Le sourire d'erwan;06-sept-26;Les Granges-le-Roi;91;21, 10, 5, 1;dès 4€;Non précisé;Intermédiaire;https://le-sourire-d-erwan.fr/;48.499112;2.012347;api-adresse.data.gouv.fr;Les Granges-le-Roi 91 France;Les Granges-le-Roi;0.5726881818181817;
Holygames – Paris Églises Tour;06-sept-26;Paris;75;10, 5;dès 25€;Non précisé;Tous niveaux;https://holygames.fr/paris-eglise-tour-2025/;48.859;2.347;api-adresse.data.gouv.fr;Paris 75 France;Paris;0.3980829411764706;
Foulée royale de neuville;06-sept-26;Gambais;78;19.8, 13.2, 5.6, 1.6, 0.8, 0.5;dès 3€;Non précisé;Intermédiaire;https://www.fouleeroyaledeneuville.fr/;48.782289;1.661828;api-adresse.data.gouv.fr;Gambais 78 France;Gambais;0.41826799043062196;
Course de la rentrée;06-sept-26;Le Perreux-sur-Marne;94;15, 7.5, 5;dès 10€;Non précisé;Tous niveaux;https://www.leperreux94.fr/agenda/course-de-la-rentree;48.8435;2.504424;api-adresse.data.gouv.fr;Le Perreux-sur-Marne 94 France;Le Perreux-sur-Marne;0.6051;
La déjantée de Mareuil;06-sept-26;Mareuil-lès-Meaux;77;19, 11, 8;dès 10€;Non précisé;Intermédiaire;https://www.facebook.com/MareuilRunDay;48.927256;2.867883;api-adresse.data.gouv.fr;Mareuil-lès-Meaux 77 France;Mareuil-lès-Meaux;0.5679483385579936;
10km Hexagone Trocadéro;06-sept-26;Paris;75;10;dès 37€;Oui;Tous niveaux;https://www.10kmtrocadero.fr/;48.859;2.347;api-adresse.data.gouv.fr;Paris 75 France;Paris;0.3980829411764706;
La sucycienne;06-sept-26;Sucy-en-Brie;94;10, 1.7, 0.7;dès 18€;Non précisé;Tous niveaux;https://www.ville-sucy.fr/agenda/la-sucycienne-2025;48.77067;2.528396;api-adresse.data.gouv.fr;Sucy-en-Brie 94 France;Sucy-en-Brie;0.5187863636363635;
Trail La Monthyonnaise;06-sept-26;Monthyon;77;14;dès 18€;Non précisé;Tous niveaux;https://new.sportsnconnect.com/client/events/4qZknT6LRDMyNJY3D5JqsG-la-monthyonnaise;49.009478;2.840023;api-adresse.data.gouv.fr;Monthyon 77 France;Monthyon;0.4380627272727272;
Les foulées forêt de Bréviande;06-sept-26;Cesson;77;10, 2, 1, 0.6;dès 13€;Non précisé;Tous niveaux;Non trouvé;48.562965;2.597355;api-adresse.data.gouv.fr;Cesson 77 France;Cesson;0.4010327272727272;
Course de la chalouette;septembre 2026 (TBC);Chalo-Saint-Mars;91;23, 11, 4.6;dès 5€;Non précisé;Intermédiaire;Non trouvé;48.420016;2.067247;api-adresse.data.gouv.fr;Chalo-Saint-Mars 91 France;Chalo-Saint-Mars;0.5526267532467533;
Marl'athon;septembre 2026 (TBC);Marles-en-Brie;77;10;Non précisé;Non précisé;Tous niveaux;Non trouvé;48.725081;2.875437;api-adresse.data.gouv.fr;Marles-en-Brie 77 France;Marles-en-Brie;0.5328219580419581;
Les 35 km du périph Grand-Paris;septembre 2026 (TBC);Paris;75;35;dès 45€;Non précisé;Confirmé;Non trouvé;48.859;2.347;api-adresse.data.gouv.fr;Paris 75 France;Paris;0.3980829411764706;
La germinoise;septembre 2026 (TBC);Germigny-l'Évêque;77;15, 5.25, 2, 1.5;Non précisé;Non précisé;Tous niveaux;Non trouvé;48.994824;2.951646;api-adresse.data.gouv.fr;Germigny-l'Évêque 77 France;Germigny-l'Évêque;0.5638365203761754;
6H de Meaux Solidaire Run;12-sept-26;Meaux;77;boucles 0.4;Non précisé;Non précisé;Tous niveaux;Non trouvé;48.959287;2.902726;api-adresse.data.gouv.fr;Meaux 77 France;Meaux;0.38167385026737966;
Les Foulées Bryardes;12-sept-26;Bry-sur-Marne;94;25, 10, 5, 2.6, 1.3;Non précisé;Non précisé;Confirmé;Non trouvé;48.83925;2.523187;api-adresse.data.gouv.fr;Bry-sur-Marne 94 France;Bry-sur-Marne;0.5305781818181818;
Semi et 10 km de Bois d'Arcy;13-sept-26;Bois d'Arcy;78;21.1, 10, 2, 1.6, 1;dès 16€;Non précisé;Intermédiaire;Non trouvé;48.803102;2.024144;api-adresse.data.gouv.fr;Bois d'Arcy 78 France;Bois-d'Arcy;0.5016224110671936;
10 km forestier Roissy-en-Brie;13-sept-26;Roissy-en-Brie;77;10, 4.7, 2, 1;dès 1€;Non précisé;Tous niveaux;Non trouvé;48.793178;2.655039;api-adresse.data.gouv.fr;Roissy-en-Brie 77 France;Roissy-en-Brie;0.5441992307692307;
La Trifouillette;13-sept-26;Igny;91;26, 17, 10, 5;dès 18€;Non précisé;Confirmé;https://igny.fr/agenda/la-trifouillette/;48.737585;2.227671;api-adresse.data.gouv.fr;Igny 91 France;Igny;0.34405454545454545;
Foulées bryardes (variante);13-sept-26;Bry-sur-Marne;94;10, 5, 2.6, 1.3, 0.6, 0.5;dès 3€;Non précisé;Tous niveaux;Non trouvé;48.83925;2.523187;api-adresse.data.gouv.fr;Bry-sur-Marne 94 France;Bry-sur-Marne;0.5305781818181818;
L'Émancéenne;13-sept-26;Émancé;78;10, 5, 0.8, 0.4;dès 3,5€;Non précisé;Tous niveaux;Non trouvé;48.592638;1.731279;api-adresse.data.gouv.fr;Émancé 78 France;Émancé;0.3894345454545454;
La Carnelloise;13-sept-26;Asnières-sur-Oise;95;10.33, 5.61, 1.5;Gratuit;Non précisé;Familial;Non trouvé;49.139257;2.374844;api-adresse.data.gouv.fr;Asnières-sur-Oise 95 France;Asnières-sur-Oise;0.5676419749216299;
La Parisienne by nākd (femmes);13-sept-26;Paris;75;10, 7;27-48€;Oui;Tous niveaux;https://www.la-parisienne.net;48.859;2.347;api-adresse.data.gouv.fr;Paris 75 France;Paris;0.3980829411764706;
La boucle by Flytex;septembre 2026 (TBC);Soisy-sous-Montmorency;95;2;dès 70€;Non précisé;Familial;Non trouvé;48.988538;2.301698;api-adresse.data.gouv.fr;Soisy-sous-Montmorency 95 France;Soisy-sous-Montmorency;0.6170864705882353;
Foulées cannoises;septembre 2026 (TBC);Cannes-Écluse;77;10, 5, 2, 1;Non précisé;Non précisé;Tous niveaux;Non trouvé;48.365388;2.984335;api-adresse.data.gouv.fr;Cannes-Écluse 77 France;Cannes-Écluse;0.5219045454545455;
Memorun;19-20 septembre 2026;Paris;75;10, 5, 2, 1;dès 5€;Non précisé;Tous niveaux;Non trouvé;48.859;2.347;api-adresse.data.gouv.fr;Paris 75 France;Paris;0.3980829411764706;
Trail des 3 forêts;19-20 septembre 2026;Clichy-sous-Bois;93;12, 10, 6, 5, 2.5, 1;dès 10€;Non précisé;Tous niveaux;Non trouvé;48.906453;2.539531;api-adresse.data.gouv.fr;Clichy-sous-Bois 93 France;Clichy-sous-Bois;0.5677403896103895;
Tsy – trail sources de l'Yvette;20-sept-26;Lévis-Saint-Nom;78;47, 21, 10, 3;dès 9€;Non précisé;Expert-Ultra;Non trouvé;48.722245;1.925179;api-adresse.data.gouv.fr;Lévis-Saint-Nom 78 France;Lévis-Saint-Nom;0.543709696969697;
Trail des loups;20-sept-26;Limay;78;12, 5, 1.5;dès 4€;Non précisé;Tous niveaux;Non trouvé;48.993097;1.735314;api-adresse.data.gouv.fr;Limay 78 France;Limay;0.37641294117647056;
10km Lagardère Paris Racing;20-sept-26;Paris;75;10;Non précisé;Non précisé;Tous niveaux;Non trouvé;48.859;2.347;api-adresse.data.gouv.fr;Paris 75 France;Paris;0.3980829411764706;
5 Km Ligue IDF d'athlétisme;20-sept-26;Mitry-Mory;77;5, 4.827;dès 10€;Non précisé;Familial;Non trouvé;48.963211;2.604405;api-adresse.data.gouv.fr;Mitry-Mory 77 France;Mitry-Mory;0.48640644628099167;
La maurecourtoise;20-sept-26;Maurecourt;78;10, 5, 2;dès 1€;Non précisé;Tous niveaux;Non trouvé;48.99883;2.062264;api-adresse.data.gouv.fr;Maurecourt 78 France;Maurecourt;0.47947917355371894;
Foulée des brettes;septembre 2026 (TBC);Villabé;91;13.6, 9, 8.5, 5;dès 3€;Non précisé;Tous niveaux;Non trouvé;48.587653;2.453636;api-adresse.data.gouv.fr;Villabé 91 France;Villabé;0.4219807177033492;
Au pas de course contre le cancer;septembre 2026 (TBC);Meaux;77;10, 5, 2;dès 2€;Non précisé;Tous niveaux;Non trouvé;48.959287;2.902726;api-adresse.data.gouv.fr;Meaux 77 France;Meaux;0.38167385026737966;
Foulées chantelouvaises;septembre 2026 (TBC);Chanteloup-les-Vignes;78;10, 5;Non précisé;Non précisé;Tous niveaux;Non trouvé;48.978679;2.034147;api-adresse.data.gouv.fr;Chanteloup-les-Vignes 78 France;Chanteloup-les-Vignes;0.6074961157024794;
Paris Zoo Run;septembre 2026 (TBC);Paris;75;10, 5;dès 19€;Non précisé;Tous niveaux;Non trouvé;48.859;2.347;api-adresse.data.gouv.fr;Paris 75 France;Paris;0.3980829411764706;
La sulpicienne course nature;26-sept-26;Saint-Soupplets;77;10, 5, 2, 1;dès 5€;Non précisé;Tous niveaux;Non trouvé;49.03657;2.806216;api-adresse.data.gouv.fr;Saint-Soupplets 77 France;Saint-Soupplets;0.5473087878787878;
Yes We Run;26-sept-26;Courbevoie;92;10, 5, 1;dès 6€;Non précisé;Tous niveaux;Non trouvé;48.897974;2.257057;api-adresse.data.gouv.fr;Courbevoie 92 France;Courbevoie;0.49276644628099164;
Virade de Paris;26-sept-26;Paris;75;10, 5, 3;dès 12€;Non précisé;Tous niveaux;Non trouvé;48.859;2.347;api-adresse.data.gouv.fr;Paris 75 France;Paris;0.3980829411764706;
Mara-Trail de Marne et Gondoire;27-sept-26;Bussy-Saint-Martin;77;42, 12, 2.6, 1.5, 0.9;Non précisé;Non précisé;Confirmé;Non trouvé;48.844311;2.677384;api-adresse.data.gouv.fr;Bussy-Saint-Martin 77 France;Bussy-Saint-Martin;0.5704972727272727;
La Nogent Baltard;27-sept-26;Nogent-sur-Marne;94;10, 6.3, 4, 2.6, 1.3, 0.4;dès 5€;Non précisé;Tous niveaux;Non trouvé;48.837475;2.480913;api-adresse.data.gouv.fr;Nogent-sur-Marne 94 France;Nogent-sur-Marne;0.5681967532467532;
Les Foulées Guernoises;27-sept-26;Guernes;78;10, 7, 5;Non précisé;Non précisé;Tous niveaux;Non trouvé;49.010221;1.634475;api-adresse.data.gouv.fr;Guernes 78 France;Guernes;0.414347990430622;
Course du Souffle (Parc de Sceaux);27-sept-26;Sceaux;92;10, 5, 1.5;Non précisé;Non précisé;Tous niveaux;Non trouvé;48.777233;2.296148;api-adresse.data.gouv.fr;Sceaux 92 France;Sceaux;0.4038554545454545;
"Paris-Versailles ""La Grande Classique""""""";27-sept-26;Paris → Versailles;75/78;16.2;29-49€ (COMPLET);Oui;Intermédiaire;https://www.parisversailles.com;48.802928;2.121128;api-adresse.data.gouv.fr;Paris → Versailles 75/78 France;Versailles;0.36326645161290316;
10 Km Université Paris Cité;27-sept-26;Paris;75;10;dès 25€;Non précisé;Tous niveaux;Non trouvé;48.859;2.347;api-adresse.data.gouv.fr;Paris 75 France;Paris;0.3980829411764706;
Les Voies Royales de Saint-Denis;27-sept-26;Saint-Denis;93;42.195, 21.1, 10, 5;Modéré;Oui (médaille bois éco);Confirmé;Non trouvé;48.93746;2.361503;api-adresse.data.gouv.fr;Saint-Denis 93 France;Saint-Denis;0.5116033201581027;
Les 10 km de Corbeil-Essonnes;septembre 2026 (TBC);Corbeil-Essonnes;91;10;Non précisé;Non précisé;Tous niveaux;Non trouvé;48.598229;2.465045;api-adresse.data.gouv.fr;Corbeil-Essonnes 91 France;Corbeil-Essonnes;0.5705503896103896;
Virade de Cergy-Pontoise;septembre 2026 (TBC);Courdimanche;95;10;Non précisé;Non précisé;Tous niveaux;Non trouvé;49.040562;2.005043;api-adresse.data.gouv.fr;Courdimanche 95 France;Courdimanche;0.5127227272727273;
Course de la diversité Paris;octobre 2026 (TBC);Paris;75;6, 3;dès 30€;Non précisé;Familial;Non trouvé;48.859;2.347;api-adresse.data.gouv.fr;Paris 75 France;Paris;0.3980829411764706;
Run for Girls;03-oct-26;Paris;75;10, 5;dès 12€;Non précisé;Tous niveaux;Non trouvé;48.859;2.347;api-adresse.data.gouv.fr;Paris 75 France;Paris;0.3980829411764706;
Purple Run;03-oct-26;Saint-Germain-en-Laye;78;10, 5;dès 15€;Non précisé;Tous niveaux;Non trouvé;48.923869;2.111227;api-adresse.data.gouv.fr;Saint-Germain-en-Laye 78 France;Saint-Germain-en-Laye;0.6140497520661158;
Éragny Tour;03-oct-26;Éragny;95;10, 5.8, 2.4, 1.8, 1.2;dès 8€;Non précisé;Tous niveaux;Non trouvé;49.0192178;2.0910817;nominatim.openstreetmap.org;Éragny, 95, Île-de-France, France;Éragny-sur-Oise, Pontoise, Val-d'Oise, Île-de-France, France métropolitaine, 95610, France;;
Odysséa Paris;3-4 octobre 2026;Vincennes;94;10, 5, 1;10-35€;Probablement (retours coureurs mitigés);Familial;https://www.odyssea.info;48.847279;2.437785;api-adresse.data.gouv.fr;Vincennes 94 France;Vincennes;0.4725914285714286;
Foulée suresnoise;3-4 octobre 2026;Suresnes;92;21.1, 10, 5, 3, 1.5, 0.75;Non précisé;Non précisé;Intermédiaire;Non trouvé;48.870985;2.218087;api-adresse.data.gouv.fr;Suresnes 92 France;Suresnes;0.45318272727272724;
La foulée chesnaycourtoise;03-oct-26;Le Chesnay;78;10, 3, 1;Non précisé;Non précisé;Tous niveaux;Non trouvé;48.826372;2.118964;api-adresse.data.gouv.fr;Le Chesnay 78 France;Le Chesnay-Rocquencourt;0.35480331550802136;
Trail de Barbizon;03-oct-26;Barbizon;77;12, 1.8, 0.9;Non précisé;Non précisé;Tous niveaux;Non trouvé;48.445751;2.607752;api-adresse.data.gouv.fr;Barbizon 77 France;Barbizon;0.43656090909090906;
"TVTC ""Tu viens tu cours""""""";octobre 2026 (TBC);Villiers-Saint-Frédéric;78;24, 10, 8, 3, 2, 1;dès 10€;Non précisé;Intermédiaire;Non trouvé;48.814199;1.884887;api-adresse.data.gouv.fr;Villiers-Saint-Frédéric 78 France;Villiers-Saint-Frédéric;0.616381038961039;
Trail du bois d'Écouen;octobre 2026 (TBC);Écouen;95;2.33;Non précisé;Non précisé;Familial;Non trouvé;49.024446;2.374568;api-adresse.data.gouv.fr;Écouen 95 France;Écouen;0.39901818181818177;
Run in Claye;04-oct-26;Claye-Souilly;77;10;Non précisé;Non précisé;Tous niveaux;Non trouvé;48.943181;2.668776;api-adresse.data.gouv.fr;Claye-Souilly 77 France;Claye-Souilly;0.5290963636363636;
Course des remparts;04-oct-26;Provins;77;18.356, 6.389;dès 12€;Non précisé;Intermédiaire;Non trouvé;48.558668;3.2981;api-adresse.data.gouv.fr;Provins 77 France;Provins;0.42511980861244014;
Les foulées canavéroises;04-oct-26;Chennevières-sur-Marne;94;8, 4, 2;dès 4€;Non précisé;Tous niveaux;Non trouvé;48.794898;2.541501;api-adresse.data.gouv.fr;Chennevières-sur-Marne 94 France;Chennevières-sur-Marne;0.6172601069518716;
La Mansonnienne;04-oct-26;Maisons-Laffitte;78;10, 5.9, 2.4, 1.1;dès 15€;Non précisé;Tous niveaux;Non trouvé;48.951168;2.151409;api-adresse.data.gouv.fr;Maisons-Laffitte 78 France;Maisons-Laffitte;0.5666503896103896;
Les foulées magnytoises;04-oct-26;Magny-en-Vexin;95;10, 5;dès 9€;Non précisé;Tous niveaux;Non trouvé;49.154803;1.798528;api-adresse.data.gouv.fr;Magny-en-Vexin 95 France;Magny-en-Vexin;0.5378774125874126;
Corrida de Villejuif;04-oct-26;Villejuif;94;10, 5, 2, 1.5, 1.2;dès 7€;Non précisé;Tous niveaux;Non trouvé;48.793468;2.360996;api-adresse.data.gouv.fr;Villejuif 94 France;Villejuif;0.47360142857142856;
Semi de la Juine;octobre 2026 (TBC);Saclas;91;21.1, 11.5, 8, 1.8;dès 10€;Non précisé;Intermédiaire;Non trouvé;48.356395;2.125494;api-adresse.data.gouv.fr;Saclas 91 France;Saclas;0.39276818181818174;
Rives & Run;octobre 2026 (TBC);Bezons;95;10, 5, 3, 1.5, 1, 0.5;Non précisé;Non précisé;Tous niveaux;Non trouvé;48.927132;2.214879;api-adresse.data.gouv.fr;Bezons 95 France;Bezons;0.4063854545454545;
Coulommiers Rose;octobre 2026 (TBC);Coulommiers;77;8, 4;Non précisé;Non précisé;Familial;Non trouvé;48.813927;3.091115;api-adresse.data.gouv.fr;Coulommiers 77 France;Coulommiers;0.5015642292490118;
Course contre le cancer octobre;octobre 2026 (TBC);Montfermeil;93;10, 5, 1;dès 6,80€;Non précisé;Tous niveaux;Non trouvé;48.897027;2.568728;api-adresse.data.gouv.fr;Montfermeil 93 France;Montfermeil;0.5041151383399208;
En baskets avec Paulette;octobre 2026 (TBC);Paris;75;6, 4;Non précisé;Non précisé;Familial;Non trouvé;48.859;2.347;api-adresse.data.gouv.fr;Paris 75 France;Paris;0.3980829411764706;
Tout Ozoir court;octobre 2026 (TBC);Ozoir-la-Ferrière;77;10, 3, 1.5;dès 2€;Non précisé;Tous niveaux;Non trouvé;48.767283;2.673278;api-adresse.data.gouv.fr;Ozoir-la-Ferrière 77 France;Ozoir-la-Ferrière;0.5763456112852663;
Foulées de Maurepas;10-oct-26;Maurepas;78;12, 6;Non précisé;Non précisé;Tous niveaux;Non trouvé;48.768058;1.92396;api-adresse.data.gouv.fr;Maurepas 78 France;Maurepas;0.4492545454545454;
Foulées de Croissy-Beaubourg;10-oct-26;Croissy-Beaubourg;77;10, 5, 2, 1.6, 1;dès 12€;Non précisé;Tous niveaux;https://www.croissy-beaubourg.fr/fr/nw/1373569/2644995/les-foulees-de-croissy;48.821778;2.65357;api-adresse.data.gouv.fr;Croissy-Beaubourg 77 France;Croissy-Beaubourg;0.5656537931034482;
La casse-pattes;10-oct-26;Limours;91;10, 5, 2.2, 1.2, 1;dès 5€;Non précisé;Tous niveaux;Non trouvé;48.643725;2.083179;api-adresse.data.gouv.fr;Limours 91 France;Limours;0.4224870813397129;
Tour de Ballainvilliers;10-oct-26;Ballainvilliers;91;10, 5, 0.4;Non précisé;Non précisé;Tous niveaux;Non trouvé;48.672089;2.291903;api-adresse.data.gouv.fr;Ballainvilliers 91 France;Ballainvilliers;0.5487869696969696;
La furieuse carrillone;10-oct-26;Carrières-sur-Seine;78;15, 10, 7.5, 5, 3;Non précisé;Non précisé;Tous niveaux;Non trouvé;48.913974;2.181597;api-adresse.data.gouv.fr;Carrières-sur-Seine 78 France;Carrières-sur-Seine;0.5929040175953079;
Foulées Pontelloises;10-oct-26;Pontault-Combault;77;10, 5, 2, 1;dès 12€;Non précisé;Tous niveaux;Non trouvé;48.793811;2.609096;api-adresse.data.gouv.fr;Pontault-Combault 77 France;Pontault-Combault;0.5791192476489027;
Hautil Trail Tour;11-oct-26;Val-d'Oise;95;30, 17, 10, 1.5, 0.8, 0.5;dès 2€;Non précisé;Confirmé;Non trouvé;48.998904;2.511155;api-adresse.data.gouv.fr;Val-d'Oise 95 France;Roissy-en-France;0.341225736677116;
Harmonie Mutuelle 20 km de Paris;11-oct-26;Paris;75;20, 15, 10, 5;20-71€;Oui;Tous niveaux;https://www.finishers.com/course/20-km-de-paris;48.859;2.347;api-adresse.data.gouv.fr;Paris 75 France;Paris;0.3980829411764706;
Ronde de Vélizy;11-oct-26;Vélizy-Villacoublay;78;10, 5, 2.8, 1.1;Non précisé;Non précisé;Tous niveaux;Non trouvé;48.785916;2.190427;api-adresse.data.gouv.fr;Vélizy-Villacoublay 78 France;Vélizy-Villacoublay;0.5949121994134897;
Semi-marathon la Spinassienne;11-oct-26;Épinay-sur-Seine;93;21.1, 10, 3.8, 1.5, 1, 0.8, 0.4;dès 15€;Non précisé;Intermédiaire;Non trouvé;48.955218;2.317123;api-adresse.data.gouv.fr;Épinay-sur-Seine 93 France;Épinay-sur-Seine;0.5704122077922078;
Trail du Coq;11-oct-26;Mondeville;91;22, 11;dès 12€;Non précisé;Intermédiaire;Non trouvé;48.489057;2.424334;api-adresse.data.gouv.fr;Mondeville 91 France;Mondeville;0.471249173553719;
Foulées de Cyrano;11-oct-26;Sannois;95;10, 5;dès 11€;Non précisé;Tous niveaux;Non trouvé;48.973523;2.253694;api-adresse.data.gouv.fr;Sannois 95 France;Sannois;0.42893344497607655;
10 km de Fontenay-sous-Bois;11-oct-26;Fontenay-sous-Bois;94;10, 5, 2;Non précisé;Non précisé;Tous niveaux;Non trouvé;48.850022;2.473494;api-adresse.data.gouv.fr;Fontenay-sous-Bois 94 France;Fontenay-sous-Bois;0.589970909090909;
Trail des Nouettes;11-oct-26;Versailles;78;18, 15, 10, 3;Non précisé;Non précisé;Intermédiaire;Non trouvé;48.802928;2.121128;api-adresse.data.gouv.fr;Versailles 78 France;Versailles;0.4928319008264463;
Cross de Chapet;11-oct-26;Chapet;78;10, 6.6, 2.6, 1.3;dès 12€;Non précisé;Tous niveaux;Non trouvé;48.964324;1.94098;api-adresse.data.gouv.fr;Chapet 78 France;Chapet;0.39135181818181813;
6 heures Trail de Cergy;octobre 2026 (TBC);Cergy;95;Format horaire;dès 16€;Non précisé;Confirmé;Non trouvé;49.04227;2.045547;api-adresse.data.gouv.fr;Cergy 95 France;Cergy;0.38267385026737966;
L'Orlysienne;octobre 2026 (TBC);Orly;94;10, 5, 2.5, 1.5;dès 10€;Non précisé;Tous niveaux;Non trouvé;48.742287;2.395245;api-adresse.data.gouv.fr;Orly 94 France;Orly;0.34779272727272725;
L'Alphonsine;octobre 2026 (TBC);Chatou;78;5.65, 5.6, 2;dès 3€;Non précisé;Tous niveaux;Non trouvé;48.896627;2.148267;api-adresse.data.gouv.fr;Chatou 78 France;Chatou;0.4055918181818181;
La Levalloisienne;27-sept-26;Levallois-Perret;92;10, 5, 3;8-24€;Oui;Familial;Non trouvé;48.894215;2.286846;api-adresse.data.gouv.fr;Levallois-Perret 92 France;Levallois-Perret;0.5715649350649351;
Les Foulées Châtillonnaises;octobre 2026 (TBC);Châtillon;92;10, 5, 3.5, 1.5;dès 2€;Non précisé;Tous niveaux;Non trouvé;48.803355;2.286345;api-adresse.data.gouv.fr;Châtillon 92 France;Châtillon;0.4713541558441558;
20;89 km de Crosne;octobre 2026 (TBC);Crosne;91;17.89, 10, 3, 2, 1;dès 2€;Non précisé;Intermédiaire;Non trouvé;48.71922;2.461842;api-adresse.data.gouv.fr;Crosne 91 France;Crosne;0.4003281818181818
Course des petits cœurs;octobre 2026 (TBC);La Garenne-Colombes;92;10, 6, 2;dès 10€;Non précisé;Tous niveaux;Non trouvé;48.907164;2.244406;api-adresse.data.gouv.fr;La Garenne-Colombes 92 France;La Garenne-Colombes;0.5961476539589442;
Trail des 7 hameaux;17-18 octobre 2026;Magny-les-Hameaux;78;23.5, 12.5, 2, 1.4, 1.2, 0.8, 0.3;dès 3€;Non précisé;Intermédiaire;Non trouvé;48.733225;2.067844;api-adresse.data.gouv.fr;Magny-les-Hameaux 78 France;Magny-les-Hameaux;0.5726347021943573;
La course du dodo;18-oct-26;Paris;75;6.5, 1.5, 1.4;dès 8€;Non précisé;Familial;Non trouvé;48.859;2.347;api-adresse.data.gouv.fr;Paris 75 France;Paris;0.3980829411764706;
AéroRun;18-oct-26;Le Bourget;93;10, 2.5;Non précisé;Non précisé;Tous niveaux;Non trouvé;48.937781;2.428852;api-adresse.data.gouv.fr;Le Bourget 93 France;Le Bourget;0.4852682644628099;
Foulées livryennes;18-oct-26;Livry-Gargan;93;5, 4, 2, 1.49, 0.8;Non précisé;Non précisé;Familial;Non trouvé;48.917656;2.533775;api-adresse.data.gouv.fr;Livry-Gargan 93 France;Livry-Gargan;0.521200909090909;
Semi-marathon du bois de Vincennes;18-oct-26;Paris;75;21.1;dès 35€;Non précisé;Intermédiaire;Non trouvé;48.859;2.347;api-adresse.data.gouv.fr;Paris 75 France;Paris;0.3980829411764706;
Le Grand Défi SEP;octobre 2026 (TBC);Sceaux;92;10, 5, 2.5;Non précisé;Non précisé;Tous niveaux;Non trouvé;48.777233;2.296148;api-adresse.data.gouv.fr;Sceaux 92 France;Sceaux;0.4038554545454545;
La course pour l'enfant;octobre 2026 (TBC);Meaux;77;10, 5;Non précisé;Non précisé;Tous niveaux;Non trouvé;48.959287;2.902726;api-adresse.data.gouv.fr;Meaux 77 France;Meaux;0.38167385026737966;
Les foulées Jazy;19-oct-26;La Courneuve;93;10, 5, 1.609;dès 5€;Non précisé;Tous niveaux;Non trouvé;48.929852;2.399668;api-adresse.data.gouv.fr;La Courneuve 93 France;La Courneuve;0.5211954545454546;
10 km de l'Île-Saint-Denis;octobre 2026 (TBC);L'Île-Saint-Denis;93;10, 5, 1;dès 10€;Non précisé;Tous niveaux;Non trouvé;48.933081;2.337644;api-adresse.data.gouv.fr;L'Île-Saint-Denis 93 France;L'Île-Saint-Denis;0.5722883385579935;
La Voie Royale;octobre 2026 (TBC);Saint-Denis;93;21.1, 10, 5;Non précisé;Non précisé;Intermédiaire;Non trouvé;48.93746;2.361503;api-adresse.data.gouv.fr;Saint-Denis 93 France;Saint-Denis;0.5116033201581027;
Foulées monterelaises;octobre 2026 (TBC);Montereau;77;10, 2, 1, 0.3;Non précisé;Non précisé;Tous niveaux;Non trouvé;47.849687;2.577774;api-adresse.data.gouv.fr;Montereau 77 France;Montereau;0.38806909090909086;
Les foulées d'Halloween;novembre 2026 (TBC);Champigny-sur-Marne;94;6;Non précisé;Non précisé;Familial;Non trouvé;48.817209;2.521265;api-adresse.data.gouv.fr;Champigny-sur-Marne 94 France;Champigny-sur-Marne;0.600464926686217;
Ekiden de Paris;novembre 2026 (TBC);Paris;75;42.195 (relais), 21;Non précisé;Non précisé;Confirmé;https://www.finishers.com/course/ekiden-de-paris;48.859;2.347;api-adresse.data.gouv.fr;Paris 75 France;Paris;0.3980829411764706;
Tourn'en nocturne;07-nov-26;Tournan-en-Brie;77;12;Non précisé;Non précisé;Tous niveaux;Non trouvé;48.740711;2.772869;api-adresse.data.gouv.fr;Tournan-en-Brie 77 France;Tournan-en-Brie;0.5511633333333333;
Parcourir Montigny;07-nov-26;Montigny-le-Bretonneux;78;10, 5, 1.5, 0.8;dès 18€;Non précisé;Tous niveaux;Non trouvé;48.779563;2.033014;api-adresse.data.gouv.fr;Montigny-le-Bretonneux 78 France;Montigny-le-Bretonneux;0.6197646524064171;
La course royale;08-nov-26;Fontenay-le-Fleury;78;21.1, 10;Non précisé;Non précisé;Intermédiaire;Non trouvé;48.810934;2.041631;api-adresse.data.gouv.fr;Fontenay-le-Fleury 78 France;Fontenay-le-Fleury;0.583750909090909;
13-Unis;novembre 2026 (TBC);Saint-Denis;93;15, 7;dès 10€;Non précisé;Tous niveaux;Non trouvé;48.93746;2.361503;api-adresse.data.gouv.fr;Saint-Denis 93 France;Saint-Denis;0.5116033201581027;
Run for Climate;novembre 2026 (TBC);Bois de Boulogne;75;10, 1;dès 35€;Non précisé;Tous niveaux;Non trouvé;48.837799;2.243202;api-adresse.data.gouv.fr;Bois de Boulogne 75 France;Boulogne-Billancourt;0.3208563636363636;
Les Bacchantes Paris;novembre 2026 (TBC);Paris;75;10, 5;Non précisé;Non précisé;Tous niveaux;Non trouvé;48.859;2.347;api-adresse.data.gouv.fr;Paris 75 France;Paris;0.3980829411764706;
Les Bacchantes jotranciennes;novembre 2026 (TBC);Jouarre;77;7, 5;dès 10€;Non précisé;Tous niveaux;Non trouvé;48.913126;3.123549;api-adresse.data.gouv.fr;Jouarre 77 France;Jouarre;0.4205143540669856;
Corrida Pédestre du 11 Novembre;11-nov-26;Aulnay-sous-Bois;93;10, 5, 3.1, 2.3, 1, 0.9;dès 10€;Non précisé;Tous niveaux;Non trouvé;48.940735;2.497929;api-adresse.data.gouv.fr;Aulnay-sous-Bois 93 France;Aulnay-sous-Bois;0.5727103896103896;
Course des Lumières Paris;novembre 2026 (TBC);Paris;75;10, 5;dès 36€;Non précisé;Tous niveaux;Non trouvé;48.859;2.347;api-adresse.data.gouv.fr;Paris 75 France;Paris;0.3980829411764706;
Foulées Saint-Thibault-des-Vignes;15-nov-26;Saint-Thibault-des-Vignes;77;22, 10, 5, 2, 1;dès 9€;Non précisé;Intermédiaire;Non trouvé;48.861725;2.67667;api-adresse.data.gouv.fr;Saint-Thibault-des-Vignes 77 France;Saint-Thibault-des-Vignes;0.632192506142506;
Ronde d'Ermont;15-nov-26;Ermont;95;10, 5;dès 8€;Non précisé;Tous niveaux;Non trouvé;48.989064;2.257404;api-adresse.data.gouv.fr;Ermont 95 France;Ermont;0.4054236363636363;
10 km Hoka Paris Centre;15-nov-26;Paris;75;10;dès 33€;Non précisé;Tous niveaux;Non trouvé;48.859;2.347;api-adresse.data.gouv.fr;Paris 75 France;Paris;0.3980829411764706;
Route 4 Châteaux;15-nov-26;Saint-Rémy-lès-Chevreuse;78;18, 16.5;dès 25€;Non précisé;Intermédiaire;Non trouvé;48.707504;2.080721;api-adresse.data.gouv.fr;Saint-Rémy-lès-Chevreuse 78 France;Saint-Rémy-lès-Chevreuse;0.6266218181818182;
Foulées olympiques colombiennes;15-nov-26;Colombes;92;10, 5, 1, 0.47;dès 12€;Non précisé;Tous niveaux;Non trouvé;48.922535;2.247799;api-adresse.data.gouv.fr;Colombes 92 France;Colombes;0.4560027272727273;
Course des lions de l'espoir;novembre 2026 (TBC);Sceaux;92;10, 5, 0.9;dès 2,50€;Non précisé;Tous niveaux;Non trouvé;48.777233;2.296148;api-adresse.data.gouv.fr;Sceaux 92 France;Sceaux;0.4038554545454545;
EndoRun;novembre 2026 (TBC);Paris;75;10, 5;dès 26€;Non précisé;Tous niveaux;Non trouvé;48.859;2.347;api-adresse.data.gouv.fr;Paris 75 France;Paris;0.3980829411764706;
Semi-marathon de Boulogne-Billancourt;novembre 2026 (TBC);Boulogne-Billancourt;92;21.1;dès 49€;Non précisé;Intermédiaire;Non trouvé;48.837799;2.243202;api-adresse.data.gouv.fr;Boulogne-Billancourt 92 France;Boulogne-Billancourt;0.6106290909090909;
Cross d'Orgeval;novembre 2026 (TBC);Orgeval;78;9, 4.5, 2.4, 1.2;Non précisé;Non précisé;Tous niveaux;Non trouvé;48.926202;1.978094;api-adresse.data.gouv.fr;Orgeval 78 France;Orgeval;0.4229725358851674;
La sans raison;21-22 novembre 2026;Vélizy-Villacoublay;78;35, 30, 18, 11, 10;dès 16€;Non précisé;Confirmé;Non trouvé;48.785916;2.190427;api-adresse.data.gouv.fr;Vélizy-Villacoublay 78 France;Vélizy-Villacoublay;0.5949121994134897;
Novemb'Run;21-nov-26;Paris;75;10, 5;Non précisé;Non précisé;Tous niveaux;Non trouvé;48.859;2.347;api-adresse.data.gouv.fr;Paris 75 France;Paris;0.3980829411764706;
Cardio Challenge Heroes;22-nov-26;Paris;75;10, 5;dès 24€;Non précisé;Tous niveaux;Non trouvé;48.859;2.347;api-adresse.data.gouv.fr;Paris 75 France;Paris;0.3980829411764706;
Les foulées de l'aéroport;22-nov-26;Drancy;93;10;Non précisé;Non précisé;Tous niveaux;Non trouvé;48.924157;2.444197;api-adresse.data.gouv.fr;Drancy 93 France;Drancy;0.4095054545454545;
La Mirabal;novembre 2026 (TBC);Champigny-sur-Marne;94;10, 5, 3, 2, 0.94;dès 1€;Non précisé;Tous niveaux;Non trouvé;48.817209;2.521265;api-adresse.data.gouv.fr;Champigny-sur-Marne 94 France;Champigny-sur-Marne;0.600464926686217;
Cross du Figaro;novembre 2026 (TBC);Saint-Cloud;92;20, 15, 10, 5;dès 15€;Non précisé;Intermédiaire;Non trouvé;48.850588;2.211247;api-adresse.data.gouv.fr;Saint-Cloud 92 France;Saint-Cloud;0.5042942292490117;
20 bornes d'Andrésy;29-nov-26;Andrésy;78;21.097, 10, 5, 2, 1;dès 2€;Non précisé;Intermédiaire;Non trouvé;48.976635;2.055981;api-adresse.data.gouv.fr;Andrésy 78 France;Andrésy;0.4259070813397129;
La Mirabal (contre les violences);29-nov-26;Champigny-sur-Marne;94;10, 5;dès 11€;Non précisé;Tous niveaux;Non trouvé;48.817209;2.521265;api-adresse.data.gouv.fr;Champigny-sur-Marne 94 France;Champigny-sur-Marne;0.600464926686217;
10 km Paris 17;novembre 2026 (TBC);Paris;75;10;dès 28€;Non précisé;Tous niveaux;Non trouvé;48.859;2.347;api-adresse.data.gouv.fr;Paris 75 France;Paris;0.3980829411764706;
Les berges de Conflans;05-déc-26;Conflans-Sainte-Honorine;78;15, 5;dès 17€;Non précisé;Tous niveaux;Non trouvé;49.000025;2.099679;api-adresse.data.gouv.fr;Conflans-Sainte-Honorine 78 France;Conflans-Sainte-Honorine;0.6337227272727273;
Les lucioles du Josas;05-déc-26;Jouy-en-Josas;78;12, 8;dès 8€;Non précisé;Tous niveaux;Non trouvé;48.77099;2.167839;api-adresse.data.gouv.fr;Jouy-en-Josas 78 France;Jouy-en-Josas;0.5267572727272728;
La Ronde de Nuit;05-déc-26;Vert-le-Petit;91;17, 10;Non précisé;Non précisé;Intermédiaire;Non trouvé;48.54835;2.36649;api-adresse.data.gouv.fr;Vert-le-Petit 91 France;Vert-le-Petit;0.5218572727272728;
Corrida de Thiais;06-déc-26;Thiais;94;10, 5, 1.5;dès 4€;Non précisé;Tous niveaux;Non trouvé;48.760465;2.386991;api-adresse.data.gouv.fr;Thiais 94 France;Thiais;0.4059236363636363;
Noctambule de Chauc';décembre 2026 (TBC);Penchard;77;20, 10;Non précisé;Non précisé;Intermédiaire;Non trouvé;48.988619;2.859225;api-adresse.data.gouv.fr;Penchard 77 France;Penchard;0.4369472727272727;
Course de Noël de Suresnes;décembre 2026 (TBC);Suresnes;92;5, 2;dès 2€;Non précisé;Familial;Non trouvé;48.870985;2.218087;api-adresse.data.gouv.fr;Suresnes 92 France;Suresnes;0.45318272727272724;
La Grande Ourcq (armentièroise by night);12-déc-26;Armentières-en-Brie;77;65, 16, 1;Non précisé;Non précisé;Expert-Ultra;Non trouvé;48.97724;3.016618;api-adresse.data.gouv.fr;Armentières-en-Brie 77 France;Armentières-en-Brie;0.581405835777126;
Courir pour le plaisir;13-déc-26;Paris;75;10, 1.5;dès 12€;Non précisé;Tous niveaux;Non trouvé;48.859;2.347;api-adresse.data.gouv.fr;Paris 75 France;Paris;0.3980829411764706;
Corrida de Noël d'Issy-les-Moulineaux;13-déc-26;Issy-les-Moulineaux;92;10, 5, 3, 1.5;dès 7€;Non précisé;Tous niveaux;Non trouvé;48.823903;2.262887;api-adresse.data.gouv.fr;Issy-les-Moulineaux 92 France;Issy-les-Moulineaux;0.5998149266862169;
Cross de la Rose;décembre 2026 (TBC);L'Haÿ-les-Roses;94;6, 3, 1.5, 0.8;dès 3€;Non précisé;Familial;Non trouvé;48.776851;2.341995;api-adresse.data.gouv.fr;L'Haÿ-les-Roses 94 France;L'Haÿ-les-Roses;0.5571933333333333;
Corrida de Rambouillet;18-déc-26;Rambouillet;78;10;Non précisé;Non précisé;Tous niveaux;Non trouvé;48.641966;1.844673;api-adresse.data.gouv.fr;Rambouillet 78 France;Rambouillet;0.5039578656126481;
Course de Noël (Samois);décembre 2026 (TBC);Samois-sur-Seine;77;5, 1.76, 0.88;dès 11€;Non précisé;Familial;Non trouvé;48.456111;2.753458;api-adresse.data.gouv.fr;Samois-sur-Seine 77 France;Samois-sur-Seine;0.555814025974026;
Corrida de Houilles;décembre 2026 (TBC);Houilles;78;10;Non précisé;Non précisé;Tous niveaux;Non trouvé;48.926572;2.186545;api-adresse.data.gouv.fr;Houilles 78 France;Houilles;0.45152272727272724;
1er Challenge sur route de France;janvier 2027 (TBC);Cernay-la-Ville;78;42.195, 21.1, 10;dès 8€;Non précisé;Confirmé;Non trouvé;48.671748;1.967661;api-adresse.data.gouv.fr;Cernay-la-Ville 78 France;Cernay-la-Ville;0.5434569696969697;
Cross de Torcy;janvier 2027 (TBC);Torcy;77;8.26, 3.99, 3.51, 2.52, 1.12;dès 1€;Non précisé;Tous niveaux;Non trouvé;48.846278;2.644456;api-adresse.data.gouv.fr;Torcy 77 France;Torcy;0.37751839572192514;
Le 10K Montmartre AG2R;janvier 2027 (TBC);Paris;75;10;Non précisé;Non précisé;Tous niveaux;Non trouvé;48.859;2.347;api-adresse.data.gouv.fr;Paris 75 France;Paris;0.3980829411764706;
La Sagittaire;janvier 2027 (TBC);Sucy-en-Brie;94;22;Non précisé;Non précisé;Intermédiaire;Non trouvé;48.77067;2.528396;api-adresse.data.gouv.fr;Sucy-en-Brie 94 France;Sucy-en-Brie;0.5187863636363635;
10 km du 14ème;janvier 2027 (TBC);Paris;75;10;dès 25€;Non précisé;Tous niveaux;Non trouvé;48.859;2.347;api-adresse.data.gouv.fr;Paris 75 France;Paris;0.3980829411764706;
La nocturne du pays de Nemours;janvier 2027 (TBC);Saint-Pierre-lès-Nemours;77;11;dès 8€;Non précisé;Tous niveaux;Non trouvé;48.265252;2.675425;api-adresse.data.gouv.fr;Saint-Pierre-lès-Nemours 77 France;Saint-Pierre-lès-Nemours;0.6249827272727272;
Foulées moissonnaises;février 2027 (TBC);Moisson;78;21.1, 14, 7.5;dès 12€;Non précisé;Intermédiaire;Non trouvé;49.070877;1.674785;api-adresse.data.gouv.fr;Moisson 78 France;Moisson;0.41351162679425835;
Foulées de Malakoff;06-févr-27;Malakoff;92;10, 5;dès 14€;Non précisé;Tous niveaux;Non trouvé;48.81742;2.294086;api-adresse.data.gouv.fr;Malakoff 92 France;Malakoff;0.45104;
Les foulées de Vincennes;février 2027 (TBC);Vincennes;94;10, 5, 2, 0.8;dès 10€;Non précisé;Tous niveaux;Non trouvé;48.847279;2.437785;api-adresse.data.gouv.fr;Vincennes 94 France;Vincennes;0.4725914285714286;
Course de la Saint-Valentin;13-févr-27;Paris;75;10, 5;dès 14,50€;Non précisé;Tous niveaux;Non trouvé;48.859;2.347;api-adresse.data.gouv.fr;Paris 75 France;Paris;0.3980829411764706;
Essec Night Run;février 2027 (TBC);Cergy;95;15.7, 8.2;dès 10€;Non précisé;Intermédiaire;Non trouvé;49.04227;2.045547;api-adresse.data.gouv.fr;Cergy 95 France;Cergy;0.38267385026737966;
Saint Valentin Forever Run;février 2027 (TBC);Saint-Germain-en-Laye;78;24.6, 12.3, 5.8;dès 18€;Non précisé;Intermédiaire;Non trouvé;48.923869;2.111227;api-adresse.data.gouv.fr;Saint-Germain-en-Laye 78 France;Saint-Germain-en-Laye;0.6140497520661158;
Cross de Sceaux;février 2027 (TBC);Sceaux;92;10, 5, 3.1, 1.5, 0.8;dès 7€;Non précisé;Tous niveaux;Non trouvé;48.777233;2.296148;api-adresse.data.gouv.fr;Sceaux 92 France;Sceaux;0.4038554545454545;
Foulées charentonnaises;février 2027 (TBC);Charenton-le-Pont;94;15, 5, 2.4, 1.5, 0.75;5-18€;Non précisé;Tous niveaux;Non trouvé;48.823948;2.407129;api-adresse.data.gouv.fr;Charenton-le-Pont 94 France;Charenton-le-Pont;0.5777347021943573;
La Meldoise (Run & Bike);février 2027 (TBC);Meaux;77;Run & Bike;dès 5€;Non précisé;Tous niveaux;Non trouvé;48.959287;2.902726;api-adresse.data.gouv.fr;Meaux 77 France;Meaux;0.38167385026737966;
Semi-marathon de Bullion;février 2027 (TBC);Senlisse;78;21.1;dès 25€;Non précisé;Intermédiaire;Non trouvé;48.68618;1.9812;api-adresse.data.gouv.fr;Senlisse 78 France;Senlisse;0.4324709090909091;
Cross de la sablière;février 2027 (TBC);Viroflay;78;11.1, 6.2, 2.8, 1.5, 1;dès 5€;Non précisé;Tous niveaux;Non trouvé;48.803693;2.172552;api-adresse.data.gouv.fr;Viroflay 78 France;Viroflay;0.4484381818181818;
Foulées étampoises;21-févr-27;Étampes;91;10;dès 18€;Non précisé;Tous niveaux;Non trouvé;48.427733;2.14952;api-adresse.data.gouv.fr;Étampes 91 France;Étampes;0.42892253588516743;
10 Semin'ordic;février 2027 (TBC);Savigny-sur-Orge;91;10;dès 18€;Non précisé;Tous niveaux;Non trouvé;48.685402;2.349213;api-adresse.data.gouv.fr;Savigny-sur-Orge 91 France;Savigny-sur-Orge;0.5688658441558442;
La Run for Them;mars 2027 (TBC);Sceaux;92;10, 5;dès 8€;Non précisé;Tous niveaux;Non trouvé;48.777233;2.296148;api-adresse.data.gouv.fr;Sceaux 92 France;Sceaux;0.4038554545454545;
15 km d'Esbly;mars 2027 (TBC);Esbly;77;22, 11, 5;Non précisé;Non précisé;Intermédiaire;Non trouvé;48.900953;2.811975;api-adresse.data.gouv.fr;Esbly 77 France;Esbly;0.37150475935828875;
Trail la Griffon'Yerres;mars 2027 (TBC);Yerres;91;23, 12, 3, 2, 1;dès 3€;Non précisé;Intermédiaire;Non trouvé;48.710884;2.491344;api-adresse.data.gouv.fr;Yerres 91 France;Yerres;0.40517272727272724;
Les foulées du tertre Montmartre;mars 2027 (TBC);Paris;75;10, 3.3, 0.8;dès 16€;Non précisé;Tous niveaux;Non trouvé;48.859;2.347;api-adresse.data.gouv.fr;Paris 75 France;Paris;0.3980829411764706;
La Forest'Yerres;mars 2027 (TBC);Yerres;91;15, 8, 2, 1;Non précisé;Non précisé;Tous niveaux;Non trouvé;48.710884;2.491344;api-adresse.data.gouv.fr;Yerres 91 France;Yerres;0.40517272727272724;
Hoka Semi de Paris;mars 2027 (TBC);Paris;75;21.1;dès 69€;Non précisé;Intermédiaire;Non trouvé;48.859;2.347;api-adresse.data.gouv.fr;Paris 75 France;Paris;0.3980829411764706;
Les Foulées Mantaises;mars 2027 (TBC);Mantes-la-Jolie;78;10, 5;dès 12€;Non précisé;Tous niveaux;Non trouvé;48.994782;1.699745;api-adresse.data.gouv.fr;Mantes-la-Jolie 78 France;Mantes-la-Jolie;0.5587087878787879;
Tour de Bernes;mars 2027 (TBC);Bernes-sur-Oise;95;10.2, 5;dès 8€;Non précisé;Tous niveaux;Non trouvé;49.158683;2.300957;api-adresse.data.gouv.fr;Bernes-sur-Oise 95 France;Bernes-sur-Oise;0.546049696969697;
10 km Magny-le-Hongre;mars 2027 (TBC);Magny-le-Hongre;77;10;dès 15€;Non précisé;Tous niveaux;Non trouvé;48.869388;2.818284;api-adresse.data.gouv.fr;Magny-le-Hongre 77 France;Magny-le-Hongre;0.5515760606060606;
6 & 12 km de Carrières-sous-Poissy;mars 2027 (TBC);Carrières-sous-Poissy;78;12, 6;dès 7€;Non précisé;Tous niveaux;Non trouvé;48.947611;2.031689;api-adresse.data.gouv.fr;Carrières-sous-Poissy 78 France;Carrières-sous-Poissy;0.6104542975206612;
Course pour l'égalité;mars 2027 (TBC);Paris;75;8, 4;Non précisé;Non précisé;Familial;Non trouvé;48.859;2.347;api-adresse.data.gouv.fr;Paris 75 France;Paris;0.3980829411764706;
Run in Chambourcy;mars 2027 (TBC);Chambourcy;78;10, 5, 2;dès 2€;Non précisé;Tous niveaux;Non trouvé;48.902406;2.041587;api-adresse.data.gouv.fr;Chambourcy 78 France;Chambourcy;0.48071553719008264;
La Putéolienne;mars 2027 (TBC);Puteaux;92;5, 3;dès 3€;Non précisé;Familial;Non trouvé;48.884156;2.237199;api-adresse.data.gouv.fr;Puteaux 92 France;Puteaux;0.43116617224880377;
Egal Run;mars 2027 (TBC);Villeneuve-la-Garenne;92;5;dès 5€;Non précisé;Familial;Non trouvé;48.935658;2.324647;api-adresse.data.gouv.fr;Villeneuve-la-Garenne 92 France;Villeneuve-la-Garenne;0.6114670247933884;
Course de l'heure;mars 2027 (TBC);Montereau-Fault-Yonne;77;13.5;Non précisé;Non précisé;Tous niveaux;Non trouvé;48.389786;2.957396;api-adresse.data.gouv.fr;Montereau-Fault-Yonne 77 France;Montereau-Fault-Yonne;0.6107615702479339;
Running féminin;mars 2027 (TBC);Saint-Brice-sous-Forêt;95;6.5, 3, 1.6, 0.8;dès 8€;Non précisé;Familial;Non trouvé;49.001693;2.35117;api-adresse.data.gouv.fr;Saint-Brice-sous-Forêt 95 France;Saint-Brice-sous-Forêt;0.6162746524064171;
La Joliot Curie;mars 2027 (TBC);Gif-sur-Yvette;91;10, 5;Non précisé;Non précisé;Tous niveaux;Non trouvé;48.694564;2.135009;api-adresse.data.gouv.fr;Gif-sur-Yvette 91 France;Gif-sur-Yvette;0.5440637762237762;
Course des 4 Clochers;mars 2027 (TBC);Vélizy-Villacoublay;78;17;dès 20,50€;Non précisé;Intermédiaire;Non trouvé;48.785916;2.190427;api-adresse.data.gouv.fr;Vélizy-Villacoublay 78 France;Vélizy-Villacoublay;0.5949121994134897;
Foulées de Saclay;mars 2027 (TBC);Saclay;91;10, 5;dès 13€;Non précisé;Tous niveaux;Non trouvé;48.747821;2.165494;api-adresse.data.gouv.fr;Saclay 91 France;Saclay;0.3968172727272727;
Semi-marathon de Saint-Witz;mars 2027 (TBC);Saint-Witz;95;21.1, 11.5, 10.3, 5, 2.6, 1.2, 0.9;dès 2€;Non précisé;Intermédiaire;Non trouvé;49.089847;2.554326;api-adresse.data.gouv.fr;Saint-Witz 95 France;Saint-Witz;0.47724644628099167;
The Cheptain Trail;mars 2027 (TBC);Cheptainville;91;32, 22, 16, 11, 8, 1, 0.6;dès 10€;Non précisé;Confirmé;Non trouvé;48.551079;2.27199;api-adresse.data.gouv.fr;Cheptainville 91 France;Cheptainville;0.5209127272727273;
Solirun;mars 2027 (TBC);Paris;75;10, 5, 4, 2, 1;dès 8€;Non précisé;Tous niveaux;Non trouvé;48.859;2.347;api-adresse.data.gouv.fr;Paris 75 France;Paris;0.3980829411764706;
Course du printemps;mars 2027 (TBC);Voisins-le-Bretonneux;78;15, 10.5, 10, 6;dès 10€;Non précisé;Tous niveaux;Non trouvé;48.75992;2.048246;api-adresse.data.gouv.fr;Voisins-le-Bretonneux 78 France;Voisins-le-Bretonneux;0.6073961157024793;
Foulées sevranaises;mars 2027 (TBC);Sevran;93;10, 5, 3, 1.5, 0.8, 0.4;dès 2€;Non précisé;Tous niveaux;Non trouvé;48.93797;2.531288;api-adresse.data.gouv.fr;Sevran 93 France;Sevran;0.40804818181818175;
Foulées de Clichy;mars 2027 (TBC);Clichy;92;10, 5, 2, 1.3, 0.4;Non précisé;Non précisé;Tous niveaux;Non trouvé;48.90348;2.305118;api-adresse.data.gouv.fr;Clichy 92 France;Clichy;0.40897454545454537;
Tour de Méry;27-mars-27;Méry-sur-Oise;95;10.2, 3, 1, 0.5;dès 2€;Non précisé;Tous niveaux;Non trouvé;49.056945;2.17294;api-adresse.data.gouv.fr;Méry-sur-Oise 95 France;Méry-sur-Oise;0.5277745454545455;
ECTU (Evry-Courcouronnes Trail Urbain);mars 2027 (TBC);Évry-Courcouronnes;91;28, 20, 15, 5;Non précisé;Non précisé;Confirmé;Non trouvé;48.62729;2.43251;api-adresse.data.gouv.fr;Évry-Courcouronnes 91 France;Évry-Courcouronnes;0.5909663636363636;
Foulées presloises;28-mars-27;Presles-en-Brie;77;17.8, 11.5, 6.8, 3.3, 1.4;Non précisé;Non précisé;Intermédiaire;Non trouvé;48.712742;2.752873;api-adresse.data.gouv.fr;Presles-en-Brie 77 France;Presles-en-Brie;0.5454824242424241;
Trail du Château d'Écouen;mars 2027 (TBC);Écouen;95;20, 10, 0.45;dès 12€;Non précisé;Intermédiaire;Non trouvé;49.024446;2.374568;api-adresse.data.gouv.fr;Écouen 95 France;Écouen;0.39901818181818177;
Foulées montlignonnaises;mars 2027 (TBC);Montlignon;95;10, 1, 0.85;dès 10€;Non précisé;Tous niveaux;Non trouvé;49.013451;2.284914;api-adresse.data.gouv.fr;Montlignon 95 France;Montlignon;0.47774190082644624;
Sine Qua Non Run;mars 2027 (TBC);Paris;75;10, 6;Non précisé;Non précisé;Tous niveaux;Non trouvé;48.859;2.347;api-adresse.data.gouv.fr;Paris 75 France;Paris;0.3980829411764706;
Trail du Josas;mars 2027 (TBC);Jouy-en-Josas;78;38, 28, 15, 3, 1.5, 1;dès 3€;Non précisé;Expert-Ultra;Non trouvé;48.77099;2.167839;api-adresse.data.gouv.fr;Jouy-en-Josas 78 France;Jouy-en-Josas;0.5267572727272728;
Semi-marathon de Rambouillet;mars 2027 (TBC);Rambouillet;78;21.1;dès 25€;Non précisé;Intermédiaire;Non trouvé;48.641966;1.844673;api-adresse.data.gouv.fr;Rambouillet 78 France;Rambouillet;0.5039578656126481;
Course des Côteaux;mars 2027 (TBC);Saint-Leu-la-Forêt;95;10, 5, 2.2, 1;Non précisé;Non précisé;Tous niveaux;Non trouvé;49.013301;2.242938;api-adresse.data.gouv.fr;Saint-Leu-la-Forêt 95 France;Saint-Leu-la-Forêt;0.5845027272727272;
Ekiden de Montgeron;mars 2027 (TBC);Montgeron;91;42.195 (relais), 10;dès 30€;Non précisé;Confirmé;Non trouvé;48.704816;2.455399;api-adresse.data.gouv.fr;Montgeron 91 France;Montgeron;0.4694268831168831;
Les foulées de l'assurance;mars 2027 (TBC);Paris;75;10, 6.3, 5;dès 23€;Non précisé;Tous niveaux;Non trouvé;48.859;2.347;api-adresse.data.gouv.fr;Paris 75 France;Paris;0.3980829411764706;
À vos baskets;mars 2027 (TBC);Villepinte;93;21.1, 10;dès 15€;Non précisé;Intermédiaire;Non trouvé;48.956508;2.532434;api-adresse.data.gouv.fr;Villepinte 93 France;Villepinte;0.4896182644628098;
21 km de l'Yvette;mars 2027 (TBC);Bures-sur-Yvette;91;21.1;dès 21,50€;Non précisé;Intermédiaire;Non trouvé;48.690963;2.158042;api-adresse.data.gouv.fr;Bures-sur-Yvette 91 France;Bures-sur-Yvette;0.5626367532467532;
Vernolienne / Cours à la Bon'heure;mars 2027 (TBC);Verneuil-sur-Seine;78;15, 8, 3, 1;dès 5€;Non précisé;Tous niveaux;Non trouvé;48.980706;1.965282;api-adresse.data.gouv.fr;Verneuil-sur-Seine 78 France;Verneuil-sur-Seine;0.5845418181818182;
La Génovéfaine;avril 2027 (TBC);Sainte-Geneviève-des-Bois;91;10;dès 15€;Non précisé;Tous niveaux;Non trouvé;48.639041;2.327655;api-adresse.data.gouv.fr;Sainte-Geneviève-des-Bois 91 France;Sainte-Geneviève-des-Bois;0.6396743243243241;
Broken Race;avril 2027 (TBC);Aubergenville;78;30, 3, 1;dès 10€;Non précisé;Confirmé;Non trouvé;48.959359;1.851264;api-adresse.data.gouv.fr;Aubergenville 78 France;Aubergenville;0.5288763636363637;
Les foulées des thermes;avril 2027 (TBC);Forges-les-Bains;91;20, 10, 2.3, 2.03, 1.2, 1, 0.8, 0.6;dès 3€;Non précisé;Intermédiaire;Non trouvé;48.60851;2.078852;api-adresse.data.gouv.fr;Forges-les-Bains 91 France;Forges-les-Bains;0.5589494805194806;
La Vivicittà (Saint-Ouen);avril 2027 (TBC);Saint-Ouen-sur-Seine;93;10, 5;dès 10€;Non précisé;Tous niveaux;Non trouvé;48.911709;2.333339;api-adresse.data.gouv.fr;Saint-Ouen-sur-Seine 93 France;Saint-Ouen-sur-Seine;0.6070045454545454;
La foulée salucéenne;avril 2027 (TBC);Champlan;91;10, 5;Non précisé;Non précisé;Tous niveaux;Non trouvé;48.707507;2.277017;api-adresse.data.gouv.fr;Champlan 91 France;Champlan;0.4398709090909091;
La ruée de la haute maison;avril 2027 (TBC);La Haute-Maison;77;10, 5, 2, 1.2;Non précisé;Non précisé;Tous niveaux;Non trouvé;48.877794;3.010956;api-adresse.data.gouv.fr;La Haute-Maison 77 France;La Haute-Maison;0.5368496969696969;
Grande Course RATP Grand Paris;avril 2027 (TBC);Paris;75;21.1, 10, 5, 0.5;dès 8€;Non précisé;Intermédiaire;Non trouvé;48.859;2.347;api-adresse.data.gouv.fr;Paris 75 France;Paris;0.3980829411764706;
Ekiden du golf de Roissy;avril 2027 (TBC);Roissy-en-France;95;42.195 (relais);dès 15€;Non précisé;Confirmé;Non trouvé;48.998904;2.511155;api-adresse.data.gouv.fr;Roissy-en-France 95 France;Roissy-en-France;0.5568549350649351;
Foulées de Savigny;avril 2027 (TBC);Savigny-sur-Orge;91;10, 5;dès 11€;Non précisé;Tous niveaux;Non trouvé;48.685402;2.349213;api-adresse.data.gouv.fr;Savigny-sur-Orge 91 France;Savigny-sur-Orge;0.5688658441558442;
Foulées vairoises;avril 2027 (TBC);Vaires-sur-Marne;77;10, 5, 2, 1;dès 11€;Non précisé;Tous niveaux;Non trouvé;48.873284;2.638373;api-adresse.data.gouv.fr;Vaires-sur-Marne 77 France;Vaires-sur-Marne;0.564353116883117;
Foulées vertes longperroises;avril 2027 (TBC);Longperrier;77;10, 5, 2, 1;Non précisé;Non précisé;Tous niveaux;Non trouvé;49.05268;2.660061;api-adresse.data.gouv.fr;Longperrier 77 France;Longperrier;0.49407877470355727;
Les 5 Kms du SSA;avril 2027 (TBC);Savigny-le-Temple;77;5;dès 5€;Non précisé;Familial;Non trouvé;48.587726;2.576659;api-adresse.data.gouv.fr;Savigny-le-Temple 77 France;Savigny-le-Temple;0.5780865203761755;
10 km du Bois de Boulogne;avril 2027 (TBC);Saint-Cloud;92;10;dès 26€;Non précisé;Tous niveaux;Non trouvé;48.850588;2.211247;api-adresse.data.gouv.fr;Saint-Cloud 92 France;Saint-Cloud;0.5042942292490117;
Les foulées blanc-mesniloises;avril 2027 (TBC);Le Blanc-Mesnil;93;10, 5, 1.5;dès 3€;Non précisé;Tous niveaux;Non trouvé;48.936683;2.457832;api-adresse.data.gouv.fr;Le Blanc-Mesnil 93 France;Le Blanc-Mesnil;0.5603442424242423;
La draveilloise;avril 2027 (TBC);Draveil;91;17, 14.5, 10.4;Non précisé;Non précisé;Intermédiaire;Non trouvé;48.677829;2.412138;api-adresse.data.gouv.fr;Draveil 91 France;Draveil;0.42944071770334924;
Argen'Trail;avril 2027 (TBC);Argenteuil;95;10, 5, 2.024, 1;Non précisé;Non précisé;Tous niveaux;Non trouvé;48.948465;2.248202;api-adresse.data.gouv.fr;Argenteuil 95 France;Argenteuil;0.4938891735537189;
Plogging Pontoise;avril 2027 (TBC);Pontoise;95;6, 3;Non précisé;Non précisé;Familial;Non trouvé;49.047592;2.099968;api-adresse.data.gouv.fr;Pontoise 95 France;Pontoise;0.45124545454545456;
Marche athlétique de l'Ourcq;avril 2027 (TBC);Ocquerre;77;10, 5, 3, 2, 1;dès 3€;Non précisé;Tous niveaux;Non trouvé;49.038126;3.054065;api-adresse.data.gouv.fr;Ocquerre 77 France;Ocquerre;0.43111;
T2M;avril 2027 (TBC);Montlignon;95;84, 60.5, 43, 25, 22.7, 14, 10;Non précisé;Non précisé;Expert-Ultra;Non trouvé;49.013451;2.284914;api-adresse.data.gouv.fr;Montlignon 95 France;Montlignon;0.47774190082644624;
Trail des coteaux de Guerville;avril 2027 (TBC);Guerville;78;42, 28, 15, 14, 3, 2, 1;dès 3€;Non précisé;Confirmé;Non trouvé;48.958544;1.745397;api-adresse.data.gouv.fr;Guerville 78 France;Guerville;0.45825051948051954;
La marollaise;avril 2027 (TBC);Marolles-en-Hurepoix;91;15, 10, 5, 3, 1;dès 3€;Non précisé;Tous niveaux;Non trouvé;48.562725;2.300049;api-adresse.data.gouv.fr;Marolles-en-Hurepoix 91 France;Marolles-en-Hurepoix;0.5968254545454544;
La noctambule;avril 2027 (TBC);Ormesson-sur-Marne;94;21.2, 11;dès 3€;Non précisé;Intermédiaire;Non trouvé;48.788138;2.534196;api-adresse.data.gouv.fr;Ormesson-sur-Marne 94 France;Ormesson-sur-Marne;0.582750909090909;
La guyancourse;avril 2027 (TBC);Guyancourt;78;21, 18, 10.7, 3, 2, 1.1, 0.8;dès 3€;Non précisé;Intermédiaire;Non trouvé;48.772152;2.070346;api-adresse.data.gouv.fr;Guyancourt 78 France;Guyancourt;0.4881128099173553;
La foulée impériale de Fontainebleau;avril 2027 (TBC);Fontainebleau;77;21.1, 10, 5, 2.5, 0.8;Non précisé;Non précisé;Intermédiaire;Non trouvé;48.40781;2.70278;api-adresse.data.gouv.fr;Fontainebleau 77 France;Fontainebleau;0.5297981818181818;
Schneider Electric Marathon de Paris;avril 2027 (TBC);Paris;75;42.195;dès 179€;Probablement (traditionnellement oui);Confirmé;https://www.schneiderelectricparismarathon.com;48.859;2.347;api-adresse.data.gouv.fr;Paris 75 France;Paris;0.3980829411764706;
La pisciacaise;avril 2027 (TBC);Poissy;78;12, 10, 5, 4, 2, 1.5;dès 5€;Non précisé;Tous niveaux;Non trouvé;48.930299;2.033457;api-adresse.data.gouv.fr;Poissy 78 France;Poissy;0.40691999999999995;
La foulée meudonnaise;avril 2027 (TBC);Meudon;92;10, 8, 5, 1.8, 0.8;dès 2€;Non précisé;Tous niveaux;Non trouvé;48.803633;2.233989;api-adresse.data.gouv.fr;Meudon 92 France;Meudon;0.4074772727272727;
La buissonnière;avril 2027 (TBC);Verrières-le-Buisson;91;20, 10, 5;dès 10€;Non précisé;Intermédiaire;Non trouvé;48.748357;2.256558;api-adresse.data.gouv.fr;Verrières-le-Buisson 91 France;Verrières-le-Buisson;0.6012327272727273;
Semi-marathon de Joinville;avril 2027 (TBC);Joinville-le-Pont;94;21.1, 10;Non précisé;Non précisé;Intermédiaire;Non trouvé;48.820327;2.471927;api-adresse.data.gouv.fr;Joinville-le-Pont 94 France;Joinville-le-Pont;0.5761910658307209;
Semi-marathon des Lions;avril 2027 (TBC);Rueil-Malmaison;92;21.1, 10;dès 18€;Non précisé;Intermédiaire;Non trouvé;48.874531;2.180455;api-adresse.data.gouv.fr;Rueil-Malmaison 92 France;Rueil-Malmaison;0.5616360606060605;
Vivicittà (Vitry);avril 2027 (TBC);Vitry-sur-Seine;94;10, 5.5, 3.7, 2, 1, 0.5;dès 5€;Non précisé;Tous niveaux;Non trouvé;48.789495;2.39571;api-adresse.data.gouv.fr;Vitry-sur-Seine 94 France;Vitry-sur-Seine;0.5622060606060606;
La diagonale des Yvelines;avril 2027 (TBC);Mantes-la-Jolie;78;106, 80, 50, 20, 12;dès 18€;Non précisé;Expert-Ultra;Non trouvé;48.994782;1.699745;api-adresse.data.gouv.fr;Mantes-la-Jolie 78 France;Mantes-la-Jolie;0.5587087878787879;
Les virées de FunRun;avril 2027 (TBC);Saint-Thibault-des-Vignes;77;18, 10, 5, 2;Non précisé;Non précisé;Intermédiaire;Non trouvé;48.861725;2.67667;api-adresse.data.gouv.fr;Saint-Thibault-des-Vignes 77 France;Saint-Thibault-des-Vignes;0.632192506142506;
La balade des chênes d'antan;avril 2027 (TBC);Draveil;91;21.1, 12, 10, 1.2, 1;dès 22€;Non précisé;Intermédiaire;Non trouvé;48.677829;2.412138;api-adresse.data.gouv.fr;Draveil 91 France;Draveil;0.42944071770334924;
10 km et semi de Trappes;avril 2027 (TBC);Trappes;78;21.1, 10, 1.5;dès 1€;Non précisé;Intermédiaire;Non trouvé;48.778249;1.993009;api-adresse.data.gouv.fr;Trappes 78 France;Trappes;0.4300852631578947;
La freneusienne;avril 2027 (TBC);Freneuse;78;10, 5, 1, 0.45;Non précisé;Non précisé;Tous niveaux;Non trouvé;49.041421;1.598916;api-adresse.data.gouv.fr;Freneuse 78 France;Freneuse;0.44234090909090906;
La nemourienne;avril 2027 (TBC);Nemours;77;10, 5, 2, 1;dès 11€;Non précisé;Tous niveaux;Non trouvé;48.266711;2.703049;api-adresse.data.gouv.fr;Nemours 77 France;Nemours;0.4255861722488038;
Ramboli'Trail;avril 2027 (TBC);Rambouillet;78;26, 17, 10, 5;Non précisé;Non précisé;Confirmé;Non trouvé;48.641966;1.844673;api-adresse.data.gouv.fr;Rambouillet 78 France;Rambouillet;0.5039578656126481;
Foulées de Nanterre;avril 2027 (TBC);Nanterre;92;10, 5, 2.4, 1;dès 2€;Non précisé;Tous niveaux;Non trouvé;48.898095;2.202314;api-adresse.data.gouv.fr;Nanterre 92 France;Nanterre;0.45632727272727264;
Les foulées de Vaugrigneuse;avril 2027 (TBC);Vaugrigneuse;91;15, 10, 5;dès 10€;Non précisé;Tous niveaux;Non trouvé;48.602084;2.100632;api-adresse.data.gouv.fr;Vaugrigneuse 91 France;Vaugrigneuse;0.5054009090909091;
Les runs de Sénart;avril 2027 (TBC);Lieusaint;77;23, 10, 5;dès 10€;Non précisé;Intermédiaire;Non trouvé;48.628626;2.547935;api-adresse.data.gouv.fr;Lieusaint 77 France;Lieusaint;0.46697870129870134;
Course du muguet;mai 2027 (TBC);Pontoise;95;10, 5;dès 9€;Non précisé;Tous niveaux;Non trouvé;49.047592;2.099968;api-adresse.data.gouv.fr;Pontoise 95 France;Pontoise;0.45124545454545456;
Ekiden du PAAC;mai 2027 (TBC);Pontault-Combault;77;42.195 (relais), 12, 10, 5;dès 10€;Non précisé;Confirmé;Non trouvé;48.793811;2.609096;api-adresse.data.gouv.fr;Pontault-Combault 77 France;Pontault-Combault;0.5791192476489027;
Foulée Saint-Briçoise;mai 2027 (TBC);Saint-Brice;77;12.5, 11.5, 5, 2.2, 1.2, 0.7;dès 5€;Non précisé;Tous niveaux;Non trouvé;48.569382;3.330837;api-adresse.data.gouv.fr;Saint-Brice 77 France;Saint-Brice;0.4879651383399209;
Tour de Houilles;mai 2027 (TBC);Houilles;78;10, 2.4;dès 3€;Non précisé;Tous niveaux;Non trouvé;48.926572;2.186545;api-adresse.data.gouv.fr;Houilles 78 France;Houilles;0.45152272727272724;
La course du château de Sully;mai 2027 (TBC);Rosny-sur-Seine;78;10, 5, 1.2;dès 2€;Non précisé;Tous niveaux;Non trouvé;48.998351;1.634097;api-adresse.data.gouv.fr;Rosny-sur-Seine 78 France;Rosny-sur-Seine;0.5506115151515151;
Marathon Médiéval de Seine-et-Marne;mai 2027 (TBC);Blandy;77;42.195, 21.1, 5;dès 10€;Non précisé;Confirmé;Non trouvé;48.56441;2.780132;api-adresse.data.gouv.fr;Blandy 77 France;Blandy;0.38882999999999995;
Paris Saint-Germain-en-Laye La Course;mai 2027 (TBC);Paris;75;20, 10;dès 22€;Non précisé;Intermédiaire;Non trouvé;48.859;2.347;api-adresse.data.gouv.fr;Paris 75 France;Paris;0.3980829411764706;
Hightrailer;mai 2027 (TBC);Franconville;95;8;dès 45€;Non précisé;Tous niveaux;Non trouvé;48.98921;2.224145;api-adresse.data.gouv.fr;Franconville 95 France;Franconville;0.5201836363636363;
10 km Unicef;mai 2027 (TBC);Paris;75;10, 3, 1;dès 28€;Non précisé;Tous niveaux;Non trouvé;48.859;2.347;api-adresse.data.gouv.fr;Paris 75 France;Paris;0.3980829411764706;
La foulée montreuilloise;mai 2027 (TBC);Montreuil;93;10, 5, 2.5;dès 11€;Non précisé;Tous niveaux;Non trouvé;48.863728;2.449364;api-adresse.data.gouv.fr;Montreuil 93 France;Montreuil;0.4764214285714286;
La bonneuilloise;mai 2027 (TBC);Bonneuil-sur-Marne;94;10, 5, 3, 1.5, 0.7, 0.5;dès 5,25€;Non précisé;Tous niveaux;Non trouvé;48.773398;2.489643;api-adresse.data.gouv.fr;Bonneuil-sur-Marne 94 France;Bonneuil-sur-Marne;0.5850663636363636;
Les Foulées des Galopins;mai 2027 (TBC);Chamarande;91;34, 17, 10, 5, 1;dès 2€;Non précisé;Confirmé;Non trouvé;48.515627;2.218246;api-adresse.data.gouv.fr;Chamarande 91 France;Chamarande;0.47308644628099167;
Foulées eaubonnaises;mai 2027 (TBC);Eaubonne;95;10.1, 5, 1;Non précisé;Non précisé;Tous niveaux;Non trouvé;48.9916;2.277576;api-adresse.data.gouv.fr;Eaubonne 95 France;Eaubonne;0.45034272727272723;
10 km du Panthéon;mai 2027 (TBC);Paris;75;10;dès 29€;Non précisé;Tous niveaux;Non trouvé;48.859;2.347;api-adresse.data.gouv.fr;Paris 75 France;Paris;0.3980829411764706;
La ronde des étangs;mai 2027 (TBC);Vert-le-Petit;91;15, 12, 10, 5, 2, 1;dès 9€;Non précisé;Tous niveaux;Non trouvé;48.54835;2.36649;api-adresse.data.gouv.fr;Vert-le-Petit 91 France;Vert-le-Petit;0.5218572727272728;
La maisonnaise;mai 2027 (TBC);Maisons-Alfort;94;21.1, 10, 4.5, 3, 1.5;dès 3€;Non précisé;Intermédiaire;Non trouvé;48.801685;2.440318;api-adresse.data.gouv.fr;Maisons-Alfort 94 France;Maisons-Alfort;0.5482637762237762;
La Pyrénéenne (10 km du 20e);mai 2027 (TBC);Paris;75;10, 3.54, 2.9, 1.6, 0.95;dès 5€;Non précisé;Tous niveaux;Non trouvé;48.859;2.347;api-adresse.data.gouv.fr;Paris 75 France;Paris;0.3980829411764706;
Foulées osnyssoises;mai 2027 (TBC);Osny;95;21, 10, 5, 1.5, 0.8;dès 12€;Non précisé;Intermédiaire;Non trouvé;49.062903;2.06412;api-adresse.data.gouv.fr;Osny 95 France;Osny;0.3463509090909091;
Course du château de Vincennes;mai 2027 (TBC);Vincennes;94;10;dès 27€;Non précisé;Tous niveaux;Non trouvé;48.847279;2.437785;api-adresse.data.gouv.fr;Vincennes 94 France;Vincennes;0.4725914285714286;
La vanvéenne;mai 2027 (TBC);Vanves;92;10, 5, 3.3, 3, 2.2, 1.4;dès 9€;Non précisé;Tous niveaux;Non trouvé;48.820966;2.286369;api-adresse.data.gouv.fr;Vanves 92 France;Vanves;0.40528818181818177;
La Briis-Pattes;mai 2027 (TBC);Briis-sous-Forges;91;12, 6, 1.5;dès 5€;Non précisé;Tous niveaux;Non trouvé;48.626471;2.132295;api-adresse.data.gouv.fr;Briis-sous-Forges 91 France;Briis-sous-Forges;0.5679437931034481;
Course pour Clara;mai 2027 (TBC);Boissy-Saint-Léger;94;12, 5, 4.2, 2.6, 1.5, 0.8;dès 2€;Non précisé;Tous niveaux;Non trouvé;48.751282;2.52001;api-adresse.data.gouv.fr;Boissy-Saint-Léger 94 France;Boissy-Saint-Léger;0.5848245454545453;
Foulées de l'amitié;mai 2027 (TBC);Chelles;77;21.1, 10, 5, 1.5;dès 10€;Non précisé;Intermédiaire;Non trouvé;48.88646;2.600366;api-adresse.data.gouv.fr;Chelles 77 France;Chelles;0.432148899521531;
Foulées arcueillaises;mai 2027 (TBC);Arcueil;94;10, 5, 2.5, 1.65, 1;dès 5€;Non précisé;Tous niveaux;Non trouvé;48.805178;2.333471;api-adresse.data.gouv.fr;Arcueil 94 France;Arcueil;0.4280570813397129;
Tour de Paris;mai 2027 (TBC);Paris;75;50, 20, 10;Non précisé;Non précisé;Confirmé;Non trouvé;48.859;2.347;api-adresse.data.gouv.fr;Paris 75 France;Paris;0.3980829411764706;
Foulées de Noisy-le-Grand;mai 2027 (TBC);Noisy-le-Grand;93;10, 3, 2, 1;dès 12€;Non précisé;Tous niveaux;Non trouvé;48.840106;2.551491;api-adresse.data.gouv.fr;Noisy-le-Grand 93 France;Noisy-le-Grand;0.5494028671328671;
Foulée paroissienne;mai 2027 (TBC);La Grande-Paroisse;77;18, 10, 5, 1.6, 1;dès 13€;Non précisé;Intermédiaire;Non trouvé;48.384227;2.903565;api-adresse.data.gouv.fr;La Grande-Paroisse 77 France;La Grande-Paroisse;0.5766927272727272;
La course des Célestins;mai 2027 (TBC);Marcoussis;91;10, 5, 2.85, 1;dès 3€;Non précisé;Tous niveaux;Non trouvé;48.647928;2.218524;api-adresse.data.gouv.fr;Marcoussis 91 France;Marcoussis;0.4824782644628099;
Foulée villennoise;mai 2027 (TBC);Villennes-sur-Seine;78;10, 5, 2;dès 10€;Non précisé;Tous niveaux;Non trouvé;48.938355;1.997115;api-adresse.data.gouv.fr;Villennes-sur-Seine 78 France;Villennes-sur-Seine;0.5887676539589441;
Foulées pantinoises;mai 2027 (TBC);Pantin;93;10, 3;dès 16€;Non précisé;Tous niveaux;Non trouvé;48.900267;2.409457;api-adresse.data.gouv.fr;Pantin 93 France;Pantin;0.40879636363636357;
Boucle du diabète;mai 2027 (TBC);Sceaux;92;10, 5, 1.2, 0.6;dès 30€;Non précisé;Tous niveaux;Non trouvé;48.777233;2.296148;api-adresse.data.gouv.fr;Sceaux 92 France;Sceaux;0.4038554545454545;
Course des Héros Paris;juin 2027 (TBC);Paris;75;10, 5;dès 16€;Non précisé;Tous niveaux;https://www.coursedesheros.com/paris/;48.859;2.347;api-adresse.data.gouv.fr;Paris 75 France;Paris;0.3980829411764706;
Adidas 10K Paris (prochaine édition);juin 2027 (TBC);Paris;75;10;dès 54€;Oui (médailles éco-conçues);Tous niveaux;https://www.adidas10kparis.fr;48.859;2.347;api-adresse.data.gouv.fr;Paris 75 France;Paris;0.3980829411764706;
Ekiden du Stade Français Paris;juin 2027 (TBC);Paris;75;42.195 (relais);dès 102€;Non précisé;Confirmé;https://www.finishers.com/course/ekiden-du-stade-francais;48.859;2.347;api-adresse.data.gouv.fr;Paris 75 France;Paris;0.3980829411764706;
La Decathlonienne Herblay;juin 2027 (TBC);Herblay-sur-Seine;95;10, 5, 1;dès 1€;Non précisé;Tous niveaux;Non trouvé;49.004061;2.152445;api-adresse.data.gouv.fr;Herblay-sur-Seine 95 France;Herblay-sur-Seine;0.5781774294670846;
We Run Paris;juin 2027 (TBC);Boulogne-Billancourt;92;40;dès 45€;Non précisé;Confirmé;Non trouvé;48.837799;2.243202;api-adresse.data.gouv.fr;Boulogne-Billancourt 92 France;Boulogne-Billancourt;0.6106290909090909;
Running au Château de Versailles;juin 2027 (TBC);Versailles;78;15, 8, 6, 2, 0.4;dès 10€;Non précisé;Tous niveaux;Non trouvé;48.802928;2.121128;api-adresse.data.gouv.fr;Versailles 78 France;Versailles;0.4928319008264463;
Sri Chinmoy Races;juin 2027 (TBC);Paris;75;100, 50;dès 39€;Non précisé;Expert-Ultra;Non trouvé;48.859;2.347;api-adresse.data.gouv.fr;Paris 75 France;Paris;0.3980829411764706;
La frileuse;juillet 2027 (TBC);Beynes;78;20, 10, 5, 2, 1.2, 0.8, 0.4;dès 10€;Non précisé;Intermédiaire;Non trouvé;48.852362;1.8756;api-adresse.data.gouv.fr;Beynes 78 France;Beynes;0.3993236363636363;
La foulée bourronnaise;août 2027 (TBC, d'après éd. 2026);Bourron-Marlotte;77;10, 4.264, 1.6, 1;dès 1€;Non précisé;Tous niveaux;Non trouvé;48.342972;2.705747;api-adresse.data.gouv.fr;Bourron-Marlotte 77 France;Bourron-Marlotte;0.5570222077922078;
La foulée trielloise;30 août 2027 (TBC, d'après éd. 2026);Triel-sur-Seine;78;13, 7;dès 10€;Non précisé;Tous niveaux;https://www.triel-sur-seine.fr/agenda/1939/1526-foulee-trielloise.htm;48.984602;2.005576;api-adresse.data.gouv.fr;Triel-sur-Seine 78 France;Triel-sur-Seine;0.552930606060606;
Les 4 heures de Montévrain;août 2027 (TBC, d'après éd. 2026);Montévrain;77;2.16, 2;dès 8€;Non précisé;Familial;Non trouvé;48.867105;2.74974;api-adresse.data.gouv.fr;Montévrain 77 France;Montévrain;0.48520008264462805;
La tremblaysienne;août 2027 (TBC, d'après éd. 2026);Le Tremblay-sur-Mauldre;78;12, 10, 7, 6.5, 3;Non précisé;Non précisé;Tous niveaux;Non trouvé;48.775664;1.876937;api-adresse.data.gouv.fr;Le Tremblay-sur-Mauldre 78 France;Le Tremblay-sur-Mauldre;0.6105055844155844;
Le sourire d'erwan;6 septembre 2027 (TBC, d'après éd. 2026);Les Granges-le-Roi;91;21, 10, 5, 1;dès 4€;Non précisé;Intermédiaire;Non trouvé;48.499112;2.012347;api-adresse.data.gouv.fr;Les Granges-le-Roi 91 France;Les Granges-le-Roi;0.5726881818181817;
Holygames – Paris Églises Tour;6 septembre 2027 (TBC, d'après éd. 2026);Paris;75;10, 5;dès 25€;Non précisé;Tous niveaux;Non trouvé;48.859;2.347;api-adresse.data.gouv.fr;Paris 75 France;Paris;0.3980829411764706;
Foulée royale de neuville;6 septembre 2027 (TBC, d'après éd. 2026);Gambais;78;19.8, 13.2, 5.6, 1.6, 0.8, 0.5;dès 3€;Non précisé;Intermédiaire;https://www.fouleeroyaledeneuville.fr/;48.782289;1.661828;api-adresse.data.gouv.fr;Gambais 78 France;Gambais;0.41826799043062196;
Course de la rentrée;6 septembre 2027 (TBC, d'après éd. 2026);Le Perreux-sur-Marne;94;15, 7.5, 5;dès 10€;Non précisé;Tous niveaux;https://www.leperreux94.fr/agenda/course-de-la-rentree;48.8435;2.504424;api-adresse.data.gouv.fr;Le Perreux-sur-Marne 94 France;Le Perreux-sur-Marne;0.6051;
La déjantée de Mareuil;6 septembre 2027 (TBC, d'après éd. 2026);Mareuil-lès-Meaux;77;19, 11, 8;dès 10€;Non précisé;Intermédiaire;Non trouvé;48.927256;2.867883;api-adresse.data.gouv.fr;Mareuil-lès-Meaux 77 France;Mareuil-lès-Meaux;0.5679483385579936;
10km Hexagone Trocadéro;6 septembre 2027 (TBC, d'après éd. 2026);Paris;75;10;dès 37€;Non précisé;Tous niveaux;Non trouvé;48.859;2.347;api-adresse.data.gouv.fr;Paris 75 France;Paris;0.3980829411764706;
La sucycienne;6 septembre 2027 (TBC, d'après éd. 2026);Sucy-en-Brie;94;10, 1.7, 0.7;dès 18€;Non précisé;Tous niveaux;Non trouvé;48.77067;2.528396;api-adresse.data.gouv.fr;Sucy-en-Brie 94 France;Sucy-en-Brie;0.5187863636363635;
Trail La Monthyonnaise;6 septembre 2027 (TBC, d'après éd. 2026);Monthyon;77;14;dès 18€;Non précisé;Tous niveaux;Non trouvé;49.009478;2.840023;api-adresse.data.gouv.fr;Monthyon 77 France;Monthyon;0.4380627272727272;
Les foulées forêt de Bréviande;6 septembre 2027 (TBC, d'après éd. 2026);Cesson;77;10, 2, 1, 0.6;dès 13€;Non précisé;Tous niveaux;Non trouvé;48.562965;2.597355;api-adresse.data.gouv.fr;Cesson 77 France;Cesson;0.4010327272727272;
Course de la chalouette;septembre 2027 (TBC, d'après éd. 2026);Chalo-Saint-Mars;91;23, 11, 4.6;dès 5€;Non précisé;Intermédiaire;Non trouvé;48.420016;2.067247;api-adresse.data.gouv.fr;Chalo-Saint-Mars 91 France;Chalo-Saint-Mars;0.5526267532467533;
Marl'athon;septembre 2027 (TBC, d'après éd. 2026);Marles-en-Brie;77;10;Non précisé;Non précisé;Tous niveaux;Non trouvé;48.725081;2.875437;api-adresse.data.gouv.fr;Marles-en-Brie 77 France;Marles-en-Brie;0.5328219580419581;
Les 35 km du périph Grand-Paris;septembre 2027 (TBC, d'après éd. 2026);Paris;75;35;dès 45€;Non précisé;Confirmé;Non trouvé;48.859;2.347;api-adresse.data.gouv.fr;Paris 75 France;Paris;0.3980829411764706;
La germinoise;septembre 2027 (TBC, d'après éd. 2026);Germigny-l'Évêque;77;15, 5.25, 2, 1.5;Non précisé;Non précisé;Tous niveaux;Non trouvé;48.994824;2.951646;api-adresse.data.gouv.fr;Germigny-l'Évêque 77 France;Germigny-l'Évêque;0.5638365203761754;
6H de Meaux Solidaire Run;12 septembre 2027 (TBC, d'après éd. 2026);Meaux;77;boucles 0.4;Non précisé;Non précisé;Tous niveaux;Non trouvé;48.959287;2.902726;api-adresse.data.gouv.fr;Meaux 77 France;Meaux;0.38167385026737966;
Les Foulées Bryardes;12 septembre 2027 (TBC, d'après éd. 2026);Bry-sur-Marne;94;25, 10, 5, 2.6, 1.3;Non précisé;Non précisé;Confirmé;Non trouvé;48.83925;2.523187;api-adresse.data.gouv.fr;Bry-sur-Marne 94 France;Bry-sur-Marne;0.5305781818181818;
Semi et 10 km de Bois d'Arcy;13 septembre 2027 (TBC, d'après éd. 2026);Bois d'Arcy;78;21.1, 10, 2, 1.6, 1;dès 16€;Non précisé;Intermédiaire;Non trouvé;48.803102;2.024144;api-adresse.data.gouv.fr;Bois d'Arcy 78 France;Bois-d'Arcy;0.5016224110671936;
10 km forestier Roissy-en-Brie;13 septembre 2027 (TBC, d'après éd. 2026);Roissy-en-Brie;77;10, 4.7, 2, 1;dès 1€;Non précisé;Tous niveaux;Non trouvé;48.793178;2.655039;api-adresse.data.gouv.fr;Roissy-en-Brie 77 France;Roissy-en-Brie;0.5441992307692307;
La Trifouillette;13 septembre 2027 (TBC, d'après éd. 2026);Igny;91;26, 17, 10, 5;dès 18€;Non précisé;Confirmé;https://igny.fr/agenda/la-trifouillette/;48.737585;2.227671;api-adresse.data.gouv.fr;Igny 91 France;Igny;0.34405454545454545;
Foulées bryardes (variante);13 septembre 2027 (TBC, d'après éd. 2026);Bry-sur-Marne;94;10, 5, 2.6, 1.3, 0.6, 0.5;dès 3€;Non précisé;Tous niveaux;Non trouvé;48.83925;2.523187;api-adresse.data.gouv.fr;Bry-sur-Marne 94 France;Bry-sur-Marne;0.5305781818181818;
L'Émancéenne;13 septembre 2027 (TBC, d'après éd. 2026);Émancé;78;10, 5, 0.8, 0.4;dès 3,5€;Non précisé;Tous niveaux;Non trouvé;48.592638;1.731279;api-adresse.data.gouv.fr;Émancé 78 France;Émancé;0.3894345454545454;
La Carnelloise;13 septembre 2027 (TBC, d'après éd. 2026);Asnières-sur-Oise;95;10.33, 5.61, 1.5;Gratuit;Non précisé;Familial;Non trouvé;49.139257;2.374844;api-adresse.data.gouv.fr;Asnières-sur-Oise 95 France;Asnières-sur-Oise;0.5676419749216299;
La Parisienne by nākd (femmes);13 septembre 2027 (TBC, d'après éd. 2026);Paris;75;10, 7;27-48€;Oui;Tous niveaux;https://www.la-parisienne.net;48.859;2.347;api-adresse.data.gouv.fr;Paris 75 France;Paris;0.3980829411764706;
La boucle by Flytex;septembre 2027 (TBC, d'après éd. 2026);Soisy-sous-Montmorency;95;2;dès 70€;Non précisé;Familial;Non trouvé;48.988538;2.301698;api-adresse.data.gouv.fr;Soisy-sous-Montmorency 95 France;Soisy-sous-Montmorency;0.6170864705882353;
Foulées cannoises;septembre 2027 (TBC, d'après éd. 2026);Cannes-Écluse;77;10, 5, 2, 1;Non précisé;Non précisé;Tous niveaux;Non trouvé;48.365388;2.984335;api-adresse.data.gouv.fr;Cannes-Écluse 77 France;Cannes-Écluse;0.5219045454545455;
Memorun;19-20 septembre 2027 (TBC, d'après éd. 2026);Paris;75;10, 5, 2, 1;dès 5€;Non précisé;Tous niveaux;Non trouvé;48.859;2.347;api-adresse.data.gouv.fr;Paris 75 France;Paris;0.3980829411764706;
Trail des 3 forêts;19-20 septembre 2027 (TBC, d'après éd. 2026);Clichy-sous-Bois;93;12, 10, 6, 5, 2.5, 1;dès 10€;Non précisé;Tous niveaux;Non trouvé;48.906453;2.539531;api-adresse.data.gouv.fr;Clichy-sous-Bois 93 France;Clichy-sous-Bois;0.5677403896103895;
Tsy – trail sources de l'Yvette;20 septembre 2027 (TBC, d'après éd. 2026);Lévis-Saint-Nom;78;47, 21, 10, 3;dès 9€;Non précisé;Expert-Ultra;Non trouvé;48.722245;1.925179;api-adresse.data.gouv.fr;Lévis-Saint-Nom 78 France;Lévis-Saint-Nom;0.543709696969697;
Trail des loups;20 septembre 2027 (TBC, d'après éd. 2026);Limay;78;12, 5, 1.5;dès 4€;Non précisé;Tous niveaux;Non trouvé;48.993097;1.735314;api-adresse.data.gouv.fr;Limay 78 France;Limay;0.37641294117647056;
10km Lagardère Paris Racing;20 septembre 2027 (TBC, d'après éd. 2026);Paris;75;10;Non précisé;Non précisé;Tous niveaux;Non trouvé;48.859;2.347;api-adresse.data.gouv.fr;Paris 75 France;Paris;0.3980829411764706;
5 Km Ligue IDF d'athlétisme;20 septembre 2027 (TBC, d'après éd. 2026);Mitry-Mory;77;5, 4.827;dès 10€;Non précisé;Familial;Non trouvé;48.963211;2.604405;api-adresse.data.gouv.fr;Mitry-Mory 77 France;Mitry-Mory;0.48640644628099167;
La maurecourtoise;20 septembre 2027 (TBC, d'après éd. 2026);Maurecourt;78;10, 5, 2;dès 1€;Non précisé;Tous niveaux;Non trouvé;48.99883;2.062264;api-adresse.data.gouv.fr;Maurecourt 78 France;Maurecourt;0.47947917355371894;
Foulée des brettes;septembre 2027 (TBC, d'après éd. 2026);Villabé;91;13.6, 9, 8.5, 5;dès 3€;Non précisé;Tous niveaux;Non trouvé;48.587653;2.453636;api-adresse.data.gouv.fr;Villabé 91 France;Villabé;0.4219807177033492;
Au pas de course contre le cancer;septembre 2027 (TBC, d'après éd. 2026);Meaux;77;10, 5, 2;dès 2€;Non précisé;Tous niveaux;Non trouvé;48.959287;2.902726;api-adresse.data.gouv.fr;Meaux 77 France;Meaux;0.38167385026737966;
Foulées chantelouvaises;septembre 2027 (TBC, d'après éd. 2026);Chanteloup-les-Vignes;78;10, 5;Non précisé;Non précisé;Tous niveaux;Non trouvé;48.978679;2.034147;api-adresse.data.gouv.fr;Chanteloup-les-Vignes 78 France;Chanteloup-les-Vignes;0.6074961157024794;
Paris Zoo Run;septembre 2027 (TBC, d'après éd. 2026);Paris;75;10, 5;dès 19€;Non précisé;Tous niveaux;Non trouvé;48.859;2.347;api-adresse.data.gouv.fr;Paris 75 France;Paris;0.3980829411764706;
La sulpicienne course nature;26 septembre 2027 (TBC, d'après éd. 2026);Saint-Soupplets;77;10, 5, 2, 1;dès 5€;Non précisé;Tous niveaux;Non trouvé;49.03657;2.806216;api-adresse.data.gouv.fr;Saint-Soupplets 77 France;Saint-Soupplets;0.5473087878787878;
Yes We Run;26 septembre 2027 (TBC, d'après éd. 2026);Courbevoie;92;10, 5, 1;dès 6€;Non précisé;Tous niveaux;Non trouvé;48.897974;2.257057;api-adresse.data.gouv.fr;Courbevoie 92 France;Courbevoie;0.49276644628099164;
Virade de Paris;26 septembre 2027 (TBC, d'après éd. 2026);Paris;75;10, 5, 3;dès 12€;Non précisé;Tous niveaux;Non trouvé;48.859;2.347;api-adresse.data.gouv.fr;Paris 75 France;Paris;0.3980829411764706;
Mara-Trail de Marne et Gondoire;27 septembre 2027 (TBC, d'après éd. 2026);Bussy-Saint-Martin;77;42, 12, 2.6, 1.5, 0.9;Non précisé;Non précisé;Confirmé;Non trouvé;48.844311;2.677384;api-adresse.data.gouv.fr;Bussy-Saint-Martin 77 France;Bussy-Saint-Martin;0.5704972727272727;
La Nogent Baltard;27 septembre 2027 (TBC, d'après éd. 2026);Nogent-sur-Marne;94;10, 6.3, 4, 2.6, 1.3, 0.4;dès 5€;Non précisé;Tous niveaux;Non trouvé;48.837475;2.480913;api-adresse.data.gouv.fr;Nogent-sur-Marne 94 France;Nogent-sur-Marne;0.5681967532467532;
Les Foulées Guernoises;27 septembre 2027 (TBC, d'après éd. 2026);Guernes;78;10, 7, 5;Non précisé;Non précisé;Tous niveaux;Non trouvé;49.010221;1.634475;api-adresse.data.gouv.fr;Guernes 78 France;Guernes;0.414347990430622;
Course du Souffle (Parc de Sceaux);27 septembre 2027 (TBC, d'après éd. 2026);Sceaux;92;10, 5, 1.5;Non précisé;Non précisé;Tous niveaux;Non trouvé;48.777233;2.296148;api-adresse.data.gouv.fr;Sceaux 92 France;Sceaux;0.4038554545454545;
"Paris-Versailles ""La Grande Classique""""""";27 septembre 2027 (TBC, d'après éd. 2026);Paris → Versailles;75/78;16.2;29-49€ (COMPLET);Oui;Intermédiaire;https://www.parisversailles.com;48.802928;2.121128;api-adresse.data.gouv.fr;Paris → Versailles 75/78 France;Versailles;0.36326645161290316;
10 Km Université Paris Cité;27 septembre 2027 (TBC, d'après éd. 2026);Paris;75;10;dès 25€;Non précisé;Tous niveaux;Non trouvé;48.859;2.347;api-adresse.data.gouv.fr;Paris 75 France;Paris;0.3980829411764706;
Les Voies Royales de Saint-Denis;27 septembre 2027 (TBC, d'après éd. 2026);Saint-Denis;93;42.195, 21.1, 10, 5;Modéré;Oui (médaille bois éco);Confirmé;Non trouvé;48.93746;2.361503;api-adresse.data.gouv.fr;Saint-Denis 93 France;Saint-Denis;0.5116033201581027;
Les 10 km de Corbeil-Essonnes;septembre 2027 (TBC, d'après éd. 2026);Corbeil-Essonnes;91;10;Non précisé;Non précisé;Tous niveaux;Non trouvé;48.598229;2.465045;api-adresse.data.gouv.fr;Corbeil-Essonnes 91 France;Corbeil-Essonnes;0.5705503896103896;
Virade de Cergy-Pontoise;septembre 2027 (TBC, d'après éd. 2026);Courdimanche;95;10;Non précisé;Non précisé;Tous niveaux;Non trouvé;49.040562;2.005043;api-adresse.data.gouv.fr;Courdimanche 95 France;Courdimanche;0.5127227272727273;
Course de la diversité Paris;octobre 2027 (TBC, d'après éd. 2026);Paris;75;6, 3;dès 30€;Non précisé;Familial;Non trouvé;48.859;2.347;api-adresse.data.gouv.fr;Paris 75 France;Paris;0.3980829411764706;
Run for Girls;3 octobre 2027 (TBC, d'après éd. 2026);Paris;75;10, 5;dès 12€;Non précisé;Tous niveaux;Non trouvé;48.859;2.347;api-adresse.data.gouv.fr;Paris 75 France;Paris;0.3980829411764706;
Purple Run;3 octobre 2027 (TBC, d'après éd. 2026);Saint-Germain-en-Laye;78;10, 5;dès 15€;Non précisé;Tous niveaux;Non trouvé;48.923869;2.111227;api-adresse.data.gouv.fr;Saint-Germain-en-Laye 78 France;Saint-Germain-en-Laye;0.6140497520661158;
Éragny Tour;3 octobre 2027 (TBC, d'après éd. 2026);Éragny;95;10, 5.8, 2.4, 1.8, 1.2;dès 8€;Non précisé;Tous niveaux;Non trouvé;49.0192178;2.0910817;nominatim.openstreetmap.org;Éragny, 95, Île-de-France, France;Éragny-sur-Oise, Pontoise, Val-d'Oise, Île-de-France, France métropolitaine, 95610, France;;
Odysséa Paris;3-4 octobre 2027 (TBC, d'après éd. 2026);Vincennes;94;10, 5, 1;10-35€;Probablement (retours coureurs mitigés);Familial;https://www.odyssea.info;48.847279;2.437785;api-adresse.data.gouv.fr;Vincennes 94 France;Vincennes;0.4725914285714286;
Foulée suresnoise;3-4 octobre 2027 (TBC, d'après éd. 2026);Suresnes;92;21.1, 10, 5, 3, 1.5, 0.75;Non précisé;Non précisé;Intermédiaire;Non trouvé;48.870985;2.218087;api-adresse.data.gouv.fr;Suresnes 92 France;Suresnes;0.45318272727272724;
La foulée chesnaycourtoise;3 octobre 2027 (TBC, d'après éd. 2026);Le Chesnay;78;10, 3, 1;Non précisé;Non précisé;Tous niveaux;Non trouvé;48.826372;2.118964;api-adresse.data.gouv.fr;Le Chesnay 78 France;Le Chesnay-Rocquencourt;0.35480331550802136;
Trail de Barbizon;3 octobre 2027 (TBC, d'après éd. 2026);Barbizon;77;12, 1.8, 0.9;Non précisé;Non précisé;Tous niveaux;Non trouvé;48.445751;2.607752;api-adresse.data.gouv.fr;Barbizon 77 France;Barbizon;0.43656090909090906;
"TVTC ""Tu viens tu cours""""""";octobre 2027 (TBC, d'après éd. 2026);Villiers-Saint-Frédéric;78;24, 10, 8, 3, 2, 1;dès 10€;Non précisé;Intermédiaire;Non trouvé;48.814199;1.884887;api-adresse.data.gouv.fr;Villiers-Saint-Frédéric 78 France;Villiers-Saint-Frédéric;0.616381038961039;
Trail du bois d'Écouen;octobre 2027 (TBC, d'après éd. 2026);Écouen;95;2.33;Non précisé;Non précisé;Familial;Non trouvé;49.024446;2.374568;api-adresse.data.gouv.fr;Écouen 95 France;Écouen;0.39901818181818177;
Run in Claye;4 octobre 2027 (TBC, d'après éd. 2026);Claye-Souilly;77;10;Non précisé;Non précisé;Tous niveaux;Non trouvé;48.943181;2.668776;api-adresse.data.gouv.fr;Claye-Souilly 77 France;Claye-Souilly;0.5290963636363636;
Course des remparts;4 octobre 2027 (TBC, d'après éd. 2026);Provins;77;18.356, 6.389;dès 12€;Non précisé;Intermédiaire;Non trouvé;48.558668;3.2981;api-adresse.data.gouv.fr;Provins 77 France;Provins;0.42511980861244014;
Les foulées canavéroises;4 octobre 2027 (TBC, d'après éd. 2026);Chennevières-sur-Marne;94;8, 4, 2;dès 4€;Non précisé;Tous niveaux;Non trouvé;48.794898;2.541501;api-adresse.data.gouv.fr;Chennevières-sur-Marne 94 France;Chennevières-sur-Marne;0.6172601069518716;
La Mansonnienne;4 octobre 2027 (TBC, d'après éd. 2026);Maisons-Laffitte;78;10, 5.9, 2.4, 1.1;dès 15€;Non précisé;Tous niveaux;Non trouvé;48.951168;2.151409;api-adresse.data.gouv.fr;Maisons-Laffitte 78 France;Maisons-Laffitte;0.5666503896103896;
Les foulées magnytoises;4 octobre 2027 (TBC, d'après éd. 2026);Magny-en-Vexin;95;10, 5;dès 9€;Non précisé;Tous niveaux;Non trouvé;49.154803;1.798528;api-adresse.data.gouv.fr;Magny-en-Vexin 95 France;Magny-en-Vexin;0.5378774125874126;
Corrida de Villejuif;4 octobre 2027 (TBC, d'après éd. 2026);Villejuif;94;10, 5, 2, 1.5, 1.2;dès 7€;Non précisé;Tous niveaux;Non trouvé;48.793468;2.360996;api-adresse.data.gouv.fr;Villejuif 94 France;Villejuif;0.47360142857142856;
Semi de la Juine;octobre 2027 (TBC, d'après éd. 2026);Saclas;91;21.1, 11.5, 8, 1.8;dès 10€;Non précisé;Intermédiaire;Non trouvé;48.356395;2.125494;api-adresse.data.gouv.fr;Saclas 91 France;Saclas;0.39276818181818174;
Rives & Run;octobre 2027 (TBC, d'après éd. 2026);Bezons;95;10, 5, 3, 1.5, 1, 0.5;Non précisé;Non précisé;Tous niveaux;Non trouvé;48.927132;2.214879;api-adresse.data.gouv.fr;Bezons 95 France;Bezons;0.4063854545454545;
Coulommiers Rose;octobre 2027 (TBC, d'après éd. 2026);Coulommiers;77;8, 4;Non précisé;Non précisé;Familial;Non trouvé;48.813927;3.091115;api-adresse.data.gouv.fr;Coulommiers 77 France;Coulommiers;0.5015642292490118;
Course contre le cancer octobre;octobre 2027 (TBC, d'après éd. 2026);Montfermeil;93;10, 5, 1;dès 6,80€;Non précisé;Tous niveaux;Non trouvé;48.897027;2.568728;api-adresse.data.gouv.fr;Montfermeil 93 France;Montfermeil;0.5041151383399208;
En baskets avec Paulette;octobre 2027 (TBC, d'après éd. 2026);Paris;75;6, 4;Non précisé;Non précisé;Familial;Non trouvé;48.859;2.347;api-adresse.data.gouv.fr;Paris 75 France;Paris;0.3980829411764706;
Tout Ozoir court;octobre 2027 (TBC, d'après éd. 2026);Ozoir-la-Ferrière;77;10, 3, 1.5;dès 2€;Non précisé;Tous niveaux;Non trouvé;48.767283;2.673278;api-adresse.data.gouv.fr;Ozoir-la-Ferrière 77 France;Ozoir-la-Ferrière;0.5763456112852663;
Foulées de Maurepas;10 octobre 2027 (TBC, d'après éd. 2026);Maurepas;78;12, 6;Non précisé;Non précisé;Tous niveaux;Non trouvé;48.768058;1.92396;api-adresse.data.gouv.fr;Maurepas 78 France;Maurepas;0.4492545454545454;
Foulées de Croissy-Beaubourg;10 octobre 2027 (TBC, d'après éd. 2026);Croissy-Beaubourg;77;10, 5, 2, 1.6, 1;dès 12€;Non précisé;Tous niveaux;https://www.croissy-beaubourg.fr/fr/nw/1373569/2644995/les-foulees-de-croissy;48.821778;2.65357;api-adresse.data.gouv.fr;Croissy-Beaubourg 77 France;Croissy-Beaubourg;0.5656537931034482;
La casse-pattes;10 octobre 2027 (TBC, d'après éd. 2026);Limours;91;10, 5, 2.2, 1.2, 1;dès 5€;Non précisé;Tous niveaux;Non trouvé;48.643725;2.083179;api-adresse.data.gouv.fr;Limours 91 France;Limours;0.4224870813397129;
Tour de Ballainvilliers;10 octobre 2027 (TBC, d'après éd. 2026);Ballainvilliers;91;10, 5, 0.4;Non précisé;Non précisé;Tous niveaux;Non trouvé;48.672089;2.291903;api-adresse.data.gouv.fr;Ballainvilliers 91 France;Ballainvilliers;0.5487869696969696;
La furieuse carrillone;10 octobre 2027 (TBC, d'après éd. 2026);Carrières-sur-Seine;78;15, 10, 7.5, 5, 3;Non précisé;Non précisé;Tous niveaux;Non trouvé;48.913974;2.181597;api-adresse.data.gouv.fr;Carrières-sur-Seine 78 France;Carrières-sur-Seine;0.5929040175953079;
Foulées Pontelloises;10 octobre 2027 (TBC, d'après éd. 2026);Pontault-Combault;77;10, 5, 2, 1;dès 12€;Non précisé;Tous niveaux;Non trouvé;48.793811;2.609096;api-adresse.data.gouv.fr;Pontault-Combault 77 France;Pontault-Combault;0.5791192476489027;
Hautil Trail Tour;11 octobre 2027 (TBC, d'après éd. 2026);Val-d'Oise;95;30, 17, 10, 1.5, 0.8, 0.5;dès 2€;Non précisé;Confirmé;Non trouvé;48.998904;2.511155;api-adresse.data.gouv.fr;Val-d'Oise 95 France;Roissy-en-France;0.341225736677116;
Harmonie Mutuelle 20 km de Paris;11 octobre 2027 (TBC, d'après éd. 2026);Paris;75;20, 15, 10, 5;20-71€;Oui;Tous niveaux;https://www.finishers.com/course/20-km-de-paris;48.859;2.347;api-adresse.data.gouv.fr;Paris 75 France;Paris;0.3980829411764706;
Ronde de Vélizy;11 octobre 2027 (TBC, d'après éd. 2026);Vélizy-Villacoublay;78;10, 5, 2.8, 1.1;Non précisé;Non précisé;Tous niveaux;Non trouvé;48.785916;2.190427;api-adresse.data.gouv.fr;Vélizy-Villacoublay 78 France;Vélizy-Villacoublay;0.5949121994134897;
Semi-marathon la Spinassienne;11 octobre 2027 (TBC, d'après éd. 2026);Épinay-sur-Seine;93;21.1, 10, 3.8, 1.5, 1, 0.8, 0.4;dès 15€;Non précisé;Intermédiaire;Non trouvé;48.955218;2.317123;api-adresse.data.gouv.fr;Épinay-sur-Seine 93 France;Épinay-sur-Seine;0.5704122077922078;
Trail du Coq;11 octobre 2027 (TBC, d'après éd. 2026);Mondeville;91;22, 11;dès 12€;Non précisé;Intermédiaire;Non trouvé;48.489057;2.424334;api-adresse.data.gouv.fr;Mondeville 91 France;Mondeville;0.471249173553719;
Foulées de Cyrano;11 octobre 2027 (TBC, d'après éd. 2026);Sannois;95;10, 5;dès 11€;Non précisé;Tous niveaux;Non trouvé;48.973523;2.253694;api-adresse.data.gouv.fr;Sannois 95 France;Sannois;0.42893344497607655;
10 km de Fontenay-sous-Bois;11 octobre 2027 (TBC, d'après éd. 2026);Fontenay-sous-Bois;94;10, 5, 2;Non précisé;Non précisé;Tous niveaux;Non trouvé;48.850022;2.473494;api-adresse.data.gouv.fr;Fontenay-sous-Bois 94 France;Fontenay-sous-Bois;0.589970909090909;
Trail des Nouettes;11 octobre 2027 (TBC, d'après éd. 2026);Versailles;78;18, 15, 10, 3;Non précisé;Non précisé;Intermédiaire;Non trouvé;48.802928;2.121128;api-adresse.data.gouv.fr;Versailles 78 France;Versailles;0.4928319008264463;
Cross de Chapet;11 octobre 2027 (TBC, d'après éd. 2026);Chapet;78;10, 6.6, 2.6, 1.3;dès 12€;Non précisé;Tous niveaux;Non trouvé;48.964324;1.94098;api-adresse.data.gouv.fr;Chapet 78 France;Chapet;0.39135181818181813;
6 heures Trail de Cergy;octobre 2027 (TBC, d'après éd. 2026);Cergy;95;Format horaire;dès 16€;Non précisé;Confirmé;Non trouvé;49.04227;2.045547;api-adresse.data.gouv.fr;Cergy 95 France;Cergy;0.38267385026737966;
L'Orlysienne;octobre 2027 (TBC, d'après éd. 2026);Orly;94;10, 5, 2.5, 1.5;dès 10€;Non précisé;Tous niveaux;Non trouvé;48.742287;2.395245;api-adresse.data.gouv.fr;Orly 94 France;Orly;0.34779272727272725;
L'Alphonsine;octobre 2027 (TBC, d'après éd. 2026);Chatou;78;5.65, 5.6, 2;dès 3€;Non précisé;Tous niveaux;Non trouvé;48.896627;2.148267;api-adresse.data.gouv.fr;Chatou 78 France;Chatou;0.4055918181818181;
La Levalloisienne;27 septembre 2027 (TBC, d'après éd. 2026);Levallois-Perret;92;10, 5, 3;8-24€;Oui;Familial;Non trouvé;48.894215;2.286846;api-adresse.data.gouv.fr;Levallois-Perret 92 France;Levallois-Perret;0.5715649350649351;
Les Foulées Châtillonnaises;octobre 2027 (TBC, d'après éd. 2026);Châtillon;92;10, 5, 3.5, 1.5;dès 2€;Non précisé;Tous niveaux;Non trouvé;48.803355;2.286345;api-adresse.data.gouv.fr;Châtillon 92 France;Châtillon;0.4713541558441558;
20;89 km de Crosne;octobre 2027 (TBC, d'après éd. 2026);Crosne;91;17.89, 10, 3, 2, 1;dès 2€;Non précisé;Intermédiaire;Non trouvé;48.71922;2.461842;api-adresse.data.gouv.fr;Crosne 91 France;Crosne;0.4003281818181818
Course des petits cœurs;octobre 2027 (TBC, d'après éd. 2026);La Garenne-Colombes;92;10, 6, 2;dès 10€;Non précisé;Tous niveaux;Non trouvé;48.907164;2.244406;api-adresse.data.gouv.fr;La Garenne-Colombes 92 France;La Garenne-Colombes;0.5961476539589442;
Trail des 7 hameaux;17-18 octobre 2027 (TBC, d'après éd. 2026);Magny-les-Hameaux;78;23.5, 12.5, 2, 1.4, 1.2, 0.8, 0.3;dès 3€;Non précisé;Intermédiaire;Non trouvé;48.733225;2.067844;api-adresse.data.gouv.fr;Magny-les-Hameaux 78 France;Magny-les-Hameaux;0.5726347021943573;
La course du dodo;18 octobre 2027 (TBC, d'après éd. 2026);Paris;75;6.5, 1.5, 1.4;dès 8€;Non précisé;Familial;Non trouvé;48.859;2.347;api-adresse.data.gouv.fr;Paris 75 France;Paris;0.3980829411764706;
AéroRun;18 octobre 2027 (TBC, d'après éd. 2026);Le Bourget;93;10, 2.5;Non précisé;Non précisé;Tous niveaux;Non trouvé;48.937781;2.428852;api-adresse.data.gouv.fr;Le Bourget 93 France;Le Bourget;0.4852682644628099;
Foulées livryennes;18 octobre 2027 (TBC, d'après éd. 2026);Livry-Gargan;93;5, 4, 2, 1.49, 0.8;Non précisé;Non précisé;Familial;Non trouvé;48.917656;2.533775;api-adresse.data.gouv.fr;Livry-Gargan 93 France;Livry-Gargan;0.521200909090909;
Semi-marathon du bois de Vincennes;18 octobre 2027 (TBC, d'après éd. 2026);Paris;75;21.1;dès 35€;Non précisé;Intermédiaire;Non trouvé;48.859;2.347;api-adresse.data.gouv.fr;Paris 75 France;Paris;0.3980829411764706;
Le Grand Défi SEP;octobre 2027 (TBC, d'après éd. 2026);Sceaux;92;10, 5, 2.5;Non précisé;Non précisé;Tous niveaux;Non trouvé;48.777233;2.296148;api-adresse.data.gouv.fr;Sceaux 92 France;Sceaux;0.4038554545454545;
La course pour l'enfant;octobre 2027 (TBC, d'après éd. 2026);Meaux;77;10, 5;Non précisé;Non précisé;Tous niveaux;Non trouvé;48.959287;2.902726;api-adresse.data.gouv.fr;Meaux 77 France;Meaux;0.38167385026737966;
Les foulées Jazy;19 octobre 2027 (TBC, d'après éd. 2026);La Courneuve;93;10, 5, 1.609;dès 5€;Non précisé;Tous niveaux;Non trouvé;48.929852;2.399668;api-adresse.data.gouv.fr;La Courneuve 93 France;La Courneuve;0.5211954545454546;
10 km de l'Île-Saint-Denis;octobre 2027 (TBC, d'après éd. 2026);L'Île-Saint-Denis;93;10, 5, 1;dès 10€;Non précisé;Tous niveaux;Non trouvé;48.933081;2.337644;api-adresse.data.gouv.fr;L'Île-Saint-Denis 93 France;L'Île-Saint-Denis;0.5722883385579935;
La Voie Royale;octobre 2027 (TBC, d'après éd. 2026);Saint-Denis;93;21.1, 10, 5;Non précisé;Non précisé;Intermédiaire;Non trouvé;48.93746;2.361503;api-adresse.data.gouv.fr;Saint-Denis 93 France;Saint-Denis;0.5116033201581027;
Foulées monterelaises;octobre 2027 (TBC, d'après éd. 2026);Montereau;77;10, 2, 1, 0.3;Non précisé;Non précisé;Tous niveaux;Non trouvé;47.849687;2.577774;api-adresse.data.gouv.fr;Montereau 77 France;Montereau;0.38806909090909086;
Les foulées d'Halloween;novembre 2027 (TBC, d'après éd. 2026);Champigny-sur-Marne;94;6;Non précisé;Non précisé;Familial;Non trouvé;48.817209;2.521265;api-adresse.data.gouv.fr;Champigny-sur-Marne 94 France;Champigny-sur-Marne;0.600464926686217;
Ekiden de Paris;novembre 2027 (TBC, d'après éd. 2026);Paris;75;42.195 (relais), 21;Non précisé;Non précisé;Confirmé;https://www.finishers.com/course/ekiden-de-paris;48.859;2.347;api-adresse.data.gouv.fr;Paris 75 France;Paris;0.3980829411764706;
Tourn'en nocturne;7 novembre 2027 (TBC, d'après éd. 2026);Tournan-en-Brie;77;12;Non précisé;Non précisé;Tous niveaux;Non trouvé;48.740711;2.772869;api-adresse.data.gouv.fr;Tournan-en-Brie 77 France;Tournan-en-Brie;0.5511633333333333;
Parcourir Montigny;7 novembre 2027 (TBC, d'après éd. 2026);Montigny-le-Bretonneux;78;10, 5, 1.5, 0.8;dès 18€;Non précisé;Tous niveaux;Non trouvé;48.779563;2.033014;api-adresse.data.gouv.fr;Montigny-le-Bretonneux 78 France;Montigny-le-Bretonneux;0.6197646524064171;
La course royale;8 novembre 2027 (TBC, d'après éd. 2026);Fontenay-le-Fleury;78;21.1, 10;Non précisé;Non précisé;Intermédiaire;Non trouvé;48.810934;2.041631;api-adresse.data.gouv.fr;Fontenay-le-Fleury 78 France;Fontenay-le-Fleury;0.583750909090909;
13-Unis;novembre 2027 (TBC, d'après éd. 2026);Saint-Denis;93;15, 7;dès 10€;Non précisé;Tous niveaux;Non trouvé;48.93746;2.361503;api-adresse.data.gouv.fr;Saint-Denis 93 France;Saint-Denis;0.5116033201581027;
Run for Climate;novembre 2027 (TBC, d'après éd. 2026);Bois de Boulogne;75;10, 1;dès 35€;Non précisé;Tous niveaux;Non trouvé;48.837799;2.243202;api-adresse.data.gouv.fr;Bois de Boulogne 75 France;Boulogne-Billancourt;0.3208563636363636;
Les Bacchantes Paris;novembre 2027 (TBC, d'après éd. 2026);Paris;75;10, 5;Non précisé;Non précisé;Tous niveaux;Non trouvé;48.859;2.347;api-adresse.data.gouv.fr;Paris 75 France;Paris;0.3980829411764706;
Les Bacchantes jotranciennes;novembre 2027 (TBC, d'après éd. 2026);Jouarre;77;7, 5;dès 10€;Non précisé;Tous niveaux;Non trouvé;48.913126;3.123549;api-adresse.data.gouv.fr;Jouarre 77 France;Jouarre;0.4205143540669856;
Corrida Pédestre du 11 Novembre;11 novembre 2027 (TBC, d'après éd. 2026);Aulnay-sous-Bois;93;10, 5, 3.1, 2.3, 1, 0.9;dès 10€;Non précisé;Tous niveaux;Non trouvé;48.940735;2.497929;api-adresse.data.gouv.fr;Aulnay-sous-Bois 93 France;Aulnay-sous-Bois;0.5727103896103896;
Course des Lumières Paris;novembre 2027 (TBC, d'après éd. 2026);Paris;75;10, 5;dès 36€;Non précisé;Tous niveaux;Non trouvé;48.859;2.347;api-adresse.data.gouv.fr;Paris 75 France;Paris;0.3980829411764706;
Foulées Saint-Thibault-des-Vignes;15 novembre 2027 (TBC, d'après éd. 2026);Saint-Thibault-des-Vignes;77;22, 10, 5, 2, 1;dès 9€;Non précisé;Intermédiaire;Non trouvé;48.861725;2.67667;api-adresse.data.gouv.fr;Saint-Thibault-des-Vignes 77 France;Saint-Thibault-des-Vignes;0.632192506142506;
Ronde d'Ermont;15 novembre 2027 (TBC, d'après éd. 2026);Ermont;95;10, 5;dès 8€;Non précisé;Tous niveaux;Non trouvé;48.989064;2.257404;api-adresse.data.gouv.fr;Ermont 95 France;Ermont;0.4054236363636363;
10 km Hoka Paris Centre;15 novembre 2027 (TBC, d'après éd. 2026);Paris;75;10;dès 33€;Non précisé;Tous niveaux;Non trouvé;48.859;2.347;api-adresse.data.gouv.fr;Paris 75 France;Paris;0.3980829411764706;
Route 4 Châteaux;15 novembre 2027 (TBC, d'après éd. 2026);Saint-Rémy-lès-Chevreuse;78;18, 16.5;dès 25€;Non précisé;Intermédiaire;Non trouvé;48.707504;2.080721;api-adresse.data.gouv.fr;Saint-Rémy-lès-Chevreuse 78 France;Saint-Rémy-lès-Chevreuse;0.6266218181818182;
Foulées olympiques colombiennes;15 novembre 2027 (TBC, d'après éd. 2026);Colombes;92;10, 5, 1, 0.47;dès 12€;Non précisé;Tous niveaux;Non trouvé;48.922535;2.247799;api-adresse.data.gouv.fr;Colombes 92 France;Colombes;0.4560027272727273;
Course des lions de l'espoir;novembre 2027 (TBC, d'après éd. 2026);Sceaux;92;10, 5, 0.9;dès 2,50€;Non précisé;Tous niveaux;Non trouvé;48.777233;2.296148;api-adresse.data.gouv.fr;Sceaux 92 France;Sceaux;0.4038554545454545;
EndoRun;novembre 2027 (TBC, d'après éd. 2026);Paris;75;10, 5;dès 26€;Non précisé;Tous niveaux;Non trouvé;48.859;2.347;api-adresse.data.gouv.fr;Paris 75 France;Paris;0.3980829411764706;
Semi-marathon de Boulogne-Billancourt;novembre 2027 (TBC, d'après éd. 2026);Boulogne-Billancourt;92;21.1;dès 49€;Non précisé;Intermédiaire;Non trouvé;48.837799;2.243202;api-adresse.data.gouv.fr;Boulogne-Billancourt 92 France;Boulogne-Billancourt;0.6106290909090909;
Cross d'Orgeval;novembre 2027 (TBC, d'après éd. 2026);Orgeval;78;9, 4.5, 2.4, 1.2;Non précisé;Non précisé;Tous niveaux;Non trouvé;48.926202;1.978094;api-adresse.data.gouv.fr;Orgeval 78 France;Orgeval;0.4229725358851674;
La sans raison;21-22 novembre 2027 (TBC, d'après éd. 2026);Vélizy-Villacoublay;78;35, 30, 18, 11, 10;dès 16€;Non précisé;Confirmé;Non trouvé;48.785916;2.190427;api-adresse.data.gouv.fr;Vélizy-Villacoublay 78 France;Vélizy-Villacoublay;0.5949121994134897;
Novemb'Run;21 novembre 2027 (TBC, d'après éd. 2026);Paris;75;10, 5;Non précisé;Non précisé;Tous niveaux;Non trouvé;48.859;2.347;api-adresse.data.gouv.fr;Paris 75 France;Paris;0.3980829411764706;
Cardio Challenge Heroes;22 novembre 2027 (TBC, d'après éd. 2026);Paris;75;10, 5;dès 24€;Non précisé;Tous niveaux;Non trouvé;48.859;2.347;api-adresse.data.gouv.fr;Paris 75 France;Paris;0.3980829411764706;
Les foulées de l'aéroport;22 novembre 2027 (TBC, d'après éd. 2026);Drancy;93;10;Non précisé;Non précisé;Tous niveaux;Non trouvé;48.924157;2.444197;api-adresse.data.gouv.fr;Drancy 93 France;Drancy;0.4095054545454545;
La Mirabal;novembre 2027 (TBC, d'après éd. 2026);Champigny-sur-Marne;94;10, 5, 3, 2, 0.94;dès 1€;Non précisé;Tous niveaux;Non trouvé;48.817209;2.521265;api-adresse.data.gouv.fr;Champigny-sur-Marne 94 France;Champigny-sur-Marne;0.600464926686217;
Cross du Figaro;novembre 2027 (TBC, d'après éd. 2026);Saint-Cloud;92;20, 15, 10, 5;dès 15€;Non précisé;Intermédiaire;Non trouvé;48.850588;2.211247;api-adresse.data.gouv.fr;Saint-Cloud 92 France;Saint-Cloud;0.5042942292490117;
20 bornes d'Andrésy;29 novembre 2027 (TBC, d'après éd. 2026);Andrésy;78;21.097, 10, 5, 2, 1;dès 2€;Non précisé;Intermédiaire;Non trouvé;48.976635;2.055981;api-adresse.data.gouv.fr;Andrésy 78 France;Andrésy;0.4259070813397129;
La Mirabal (contre les violences);29 novembre 2027 (TBC, d'après éd. 2026);Champigny-sur-Marne;94;10, 5;dès 11€;Non précisé;Tous niveaux;Non trouvé;48.817209;2.521265;api-adresse.data.gouv.fr;Champigny-sur-Marne 94 France;Champigny-sur-Marne;0.600464926686217;
10 km Paris 17;novembre 2027 (TBC, d'après éd. 2026);Paris;75;10;dès 28€;Non précisé;Tous niveaux;Non trouvé;48.859;2.347;api-adresse.data.gouv.fr;Paris 75 France;Paris;0.3980829411764706;
Les berges de Conflans;5 décembre 2027 (TBC, d'après éd. 2026);Conflans-Sainte-Honorine;78;15, 5;dès 17€;Non précisé;Tous niveaux;Non trouvé;49.000025;2.099679;api-adresse.data.gouv.fr;Conflans-Sainte-Honorine 78 France;Conflans-Sainte-Honorine;0.6337227272727273;
Les lucioles du Josas;5 décembre 2027 (TBC, d'après éd. 2026);Jouy-en-Josas;78;12, 8;dès 8€;Non précisé;Tous niveaux;Non trouvé;48.77099;2.167839;api-adresse.data.gouv.fr;Jouy-en-Josas 78 France;Jouy-en-Josas;0.5267572727272728;
La Ronde de Nuit;5 décembre 2027 (TBC, d'après éd. 2026);Vert-le-Petit;91;17, 10;Non précisé;Non précisé;Intermédiaire;Non trouvé;48.54835;2.36649;api-adresse.data.gouv.fr;Vert-le-Petit 91 France;Vert-le-Petit;0.5218572727272728;
Corrida de Thiais;6 décembre 2027 (TBC, d'après éd. 2026);Thiais;94;10, 5, 1.5;dès 4€;Non précisé;Tous niveaux;Non trouvé;48.760465;2.386991;api-adresse.data.gouv.fr;Thiais 94 France;Thiais;0.4059236363636363;
Noctambule de Chauc';décembre 2027 (TBC, d'après éd. 2026);Penchard;77;20, 10;Non précisé;Non précisé;Intermédiaire;Non trouvé;48.988619;2.859225;api-adresse.data.gouv.fr;Penchard 77 France;Penchard;0.4369472727272727;
Course de Noël de Suresnes;décembre 2027 (TBC, d'après éd. 2026);Suresnes;92;5, 2;dès 2€;Non précisé;Familial;Non trouvé;48.870985;2.218087;api-adresse.data.gouv.fr;Suresnes 92 France;Suresnes;0.45318272727272724;
La Grande Ourcq (armentièroise by night);12 décembre 2027 (TBC, d'après éd. 2026);Armentières-en-Brie;77;65, 16, 1;Non précisé;Non précisé;Expert-Ultra;https://www.courirpourarmentieres.com/nos-organisations/raid-course-a-pied-la-grande-ourcq/;48.97724;3.016618;api-adresse.data.gouv.fr;Armentières-en-Brie 77 France;Armentières-en-Brie;0.581405835777126;
Courir pour le plaisir;13 décembre 2027 (TBC, d'après éd. 2026);Paris;75;10, 1.5;dès 12€;Non précisé;Tous niveaux;https://courirpourleplaisir.fr/;48.859;2.347;api-adresse.data.gouv.fr;Paris 75 France;Paris;0.3980829411764706;
Corrida de Noël d'Issy-les-Moulineaux;13 décembre 2027 (TBC, d'après éd. 2026);Issy-les-Moulineaux;92;10, 5, 3, 1.5;dès 7€;Non précisé;Tous niveaux;https://corrida-noel-issy.com/;48.823903;2.262887;api-adresse.data.gouv.fr;Issy-les-Moulineaux 92 France;Issy-les-Moulineaux;0.5998149266862169;
Cross de la Rose;décembre 2027 (TBC, d'après éd. 2026);L'Haÿ-les-Roses;94;6, 3, 1.5, 0.8;dès 3€;Non précisé;Familial;https://www.crossdelarose.fr/;48.776851;2.341995;api-adresse.data.gouv.fr;L'Haÿ-les-Roses 94 France;L'Haÿ-les-Roses;0.5571933333333333;
Corrida de Rambouillet;18 décembre 2027 (TBC, d'après éd. 2026);Rambouillet;78;10;Non précisé;Non précisé;Tous niveaux;https://www.corrida-de-rambouillet.fr/;48.641966;1.844673;api-adresse.data.gouv.fr;Rambouillet 78 France;Rambouillet;0.5039578656126481;
Course de Noël (Samois);décembre 2027 (TBC, d'après éd. 2026);Samois-sur-Seine;77;5, 1.76, 0.88;dès 11€;Non précisé;Familial;https://samois-sur-seine.fr/evenement/course-de-noel-2/;48.456111;2.753458;api-adresse.data.gouv.fr;Samois-sur-Seine 77 France;Samois-sur-Seine;0.555814025974026;
Corrida de Houilles;décembre 2027 (TBC, d'après éd. 2026);Houilles;78;10;Non précisé;Non précisé;Tous niveaux;https://www.corrida-de-houilles.fr/;48.926572;2.186545;api-adresse.data.gouv.fr;Houilles 78 France;Houilles;0.45152272727272724;
